{
	"type" : "FeatureCollection",
	"name" : "PresGatenavn",
	"features" : [
		{
			"type" : "Feature",
			"geometry" : {
				"type" : "Point",
				"coordinates" : [ 5.732366678946107, 58.94647615978763 ]
			},
			"properties" : {
				"Gatenavn" : "Frams gate"
			}
		},
		{
			"type" : "Feature",
			"geometry" : {
				"type" : "Point",
				"coordinates" : [ 5.690246921499995, 58.97744817254599 ]
			},
			"properties" : {
				"Gatenavn" : "Rødknappveien"
			}
		},
		{
			"type" : "Feature",
			"geometry" : {
				"type" : "Point",
				"coordinates" : [ 5.685704727721468, 58.9765489555281 ]
			},
			"properties" : {
				"Gatenavn" : "Myrveien"
			}
		},
		{
			"type" : "Feature",
			"geometry" : {
				"type" : "Point",
				"coordinates" : [ 5.6807012951338045, 58.99663543368279 ]
			},
			"properties" : {
				"Gatenavn" : "Storden"
			}
		},
		{
			"type" : "Feature",
			"geometry" : {
				"type" : "Point",
				"coordinates" : [ 5.745648544982933, 58.963923461176 ]
			},
			"properties" : {
				"Gatenavn" : "Jelsagata"
			}
		},
		{
			"type" : "Feature",
			"geometry" : {
				"type" : "Point",
				"coordinates" : [ 5.783824312951809, 58.99707255423663 ]
			},
			"properties" : {
				"Gatenavn" : "Nesahaugen"
			}
		},
		{
			"type" : "Feature",
			"geometry" : {
				"type" : "Point",
				"coordinates" : [ 5.697346682619344, 58.987260837555326 ]
			},
			"properties" : {
				"Gatenavn" : "Lauvastølveien"
			}
		},
		{
			"type" : "Feature",
			"geometry" : {
				"type" : "Point",
				"coordinates" : [ 5.714467961758105, 58.89635751458861 ]
			},
			"properties" : {
				"Gatenavn" : "Godesethagen"
			}
		},
		{
			"type" : "Feature",
			"geometry" : {
				"type" : "Point",
				"coordinates" : [ 5.632944636375224, 58.95544718487181 ]
			},
			"properties" : {
				"Gatenavn" : "Djupadalshagen"
			}
		},
		{
			"type" : "Feature",
			"geometry" : {
				"type" : "Point",
				"coordinates" : [ 5.735360588757793, 58.929750015475626 ]
			},
			"properties" : {
				"Gatenavn" : "Sørhallet"
			}
		},
		{
			"type" : "Feature",
			"geometry" : {
				"type" : "Point",
				"coordinates" : [ 5.747308200912324, 58.970565982530914 ]
			},
			"properties" : {
				"Gatenavn" : "Grensesteinsgata"
			}
		},
		{
			"type" : "Feature",
			"geometry" : {
				"type" : "Point",
				"coordinates" : [ 5.662940509826846, 58.98095801701172 ]
			},
			"properties" : {
				"Gatenavn" : "Kvernevikveien"
			}
		},
		{
			"type" : "Feature",
			"geometry" : {
				"type" : "Point",
				"coordinates" : [ 5.718983993160677, 59.00405935824596 ]
			},
			"properties" : {
				"Gatenavn" : "Skårungeveien"
			}
		},
		{
			"type" : "Feature",
			"geometry" : {
				"type" : "Point",
				"coordinates" : [ 5.611800963997007, 58.963064807597924 ]
			},
			"properties" : {
				"Gatenavn" : "Duganeveien"
			}
		},
		{
			"type" : "Feature",
			"geometry" : {
				"type" : "Point",
				"coordinates" : [ 5.7331902470778315, 58.97042542137502 ]
			},
			"properties" : {
				"Gatenavn" : "Lønningssmauet"
			}
		},
		{
			"type" : "Feature",
			"geometry" : {
				"type" : "Point",
				"coordinates" : [ 5.689516289816785, 58.93762316893086 ]
			},
			"properties" : {
				"Gatenavn" : "Gosenhaugen"
			}
		},
		{
			"type" : "Feature",
			"geometry" : {
				"type" : "Point",
				"coordinates" : [ 5.698538733238637, 58.94846608066523 ]
			},
			"properties" : {
				"Gatenavn" : "Pollux' gate"
			}
		},
		{
			"type" : "Feature",
			"geometry" : {
				"type" : "Point",
				"coordinates" : [ 5.725726579929011, 58.973773920700914 ]
			},
			"properties" : {
				"Gatenavn" : "Nedre Strandgate"
			}
		},
		{
			"type" : "Feature",
			"geometry" : {
				"type" : "Point",
				"coordinates" : [ 5.742937835747369, 59.00314193589671 ]
			},
			"properties" : {
				"Gatenavn" : "Lundebakken"
			}
		},
		{
			"type" : "Feature",
			"geometry" : {
				"type" : "Point",
				"coordinates" : [ 5.716748557820611, 58.9707927183685 ]
			},
			"properties" : {
				"Gatenavn" : "Kampensgata"
			}
		},
		{
			"type" : "Feature",
			"geometry" : {
				"type" : "Point",
				"coordinates" : [ 5.685367712136005, 58.996032260173756 ]
			},
			"properties" : {
				"Gatenavn" : "Smølaveien"
			}
		},
		{
			"type" : "Feature",
			"geometry" : {
				"type" : "Point",
				"coordinates" : [ 5.727202844998235, 59.00611404508614 ]
			},
			"properties" : {
				"Gatenavn" : "Størjeveien"
			}
		},
		{
			"type" : "Feature",
			"geometry" : {
				"type" : "Point",
				"coordinates" : [ 5.741133697867724, 58.97076547557262 ]
			},
			"properties" : {
				"Gatenavn" : "Nedre Blåsenborg"
			}
		},
		{
			"type" : "Feature",
			"geometry" : {
				"type" : "Point",
				"coordinates" : [ 5.716485203928783, 58.999854696108464 ]
			},
			"properties" : {
				"Gatenavn" : "Havertveien"
			}
		},
		{
			"type" : "Feature",
			"geometry" : {
				"type" : "Point",
				"coordinates" : [ 5.707940903430437, 58.9631554681145 ]
			},
			"properties" : {
				"Gatenavn" : "Bretlandsgata"
			}
		},
		{
			"type" : "Feature",
			"geometry" : {
				"type" : "Point",
				"coordinates" : [ 5.689418569802389, 58.95593409620503 ]
			},
			"properties" : {
				"Gatenavn" : "Måltroststien"
			}
		},
		{
			"type" : "Feature",
			"geometry" : {
				"type" : "Point",
				"coordinates" : [ 5.724503203276708, 58.962205060040134 ]
			},
			"properties" : {
				"Gatenavn" : "Tjodolvs gate"
			}
		},
		{
			"type" : "Feature",
			"geometry" : {
				"type" : "Point",
				"coordinates" : [ 5.7334902201877735, 58.99135541018592 ]
			},
			"properties" : {
				"Gatenavn" : "Galeivågen"
			}
		},
		{
			"type" : "Feature",
			"geometry" : {
				"type" : "Point",
				"coordinates" : [ 5.678673871157816, 58.95093968580944 ]
			},
			"properties" : {
				"Gatenavn" : "Gydas gate"
			}
		},
		{
			"type" : "Feature",
			"geometry" : {
				"type" : "Point",
				"coordinates" : [ 5.679521654447467, 58.945517112126254 ]
			},
			"properties" : {
				"Gatenavn" : "Bjørn Farmanns gate"
			}
		},
		{
			"type" : "Feature",
			"geometry" : {
				"type" : "Point",
				"coordinates" : [ 5.710219210841548, 58.93494782331409 ]
			},
			"properties" : {
				"Gatenavn" : "Oskars plass"
			}
		},
		{
			"type" : "Feature",
			"geometry" : {
				"type" : "Point",
				"coordinates" : [ 5.676225548729519, 58.944447524195 ]
			},
			"properties" : {
				"Gatenavn" : "Halvdan Svartes gate"
			}
		},
		{
			"type" : "Feature",
			"geometry" : {
				"type" : "Point",
				"coordinates" : [ 5.730547646493096, 58.90920762245938 ]
			},
			"properties" : {
				"Gatenavn" : "Boganesringen"
			}
		},
		{
			"type" : "Feature",
			"geometry" : {
				"type" : "Point",
				"coordinates" : [ 5.662482595695098, 58.95487625881626 ]
			},
			"properties" : {
				"Gatenavn" : "Ragkroken"
			}
		},
		{
			"type" : "Feature",
			"geometry" : {
				"type" : "Point",
				"coordinates" : [ 5.743629769038303, 58.94701954368523 ]
			},
			"properties" : {
				"Gatenavn" : "Hillevågsveien"
			}
		},
		{
			"type" : "Feature",
			"geometry" : {
				"type" : "Point",
				"coordinates" : [ 5.695749094183013, 58.97469741060306 ]
			},
			"properties" : {
				"Gatenavn" : "Vølstadveien"
			}
		},
		{
			"type" : "Feature",
			"geometry" : {
				"type" : "Point",
				"coordinates" : [ 5.740046441711939, 58.960851094575716 ]
			},
			"properties" : {
				"Gatenavn" : "Biskop Arnes vei"
			}
		},
		{
			"type" : "Feature",
			"geometry" : {
				"type" : "Point",
				"coordinates" : [ 5.75414569945995, 58.96004241125111 ]
			},
			"properties" : {
				"Gatenavn" : "Midjordgata"
			}
		},
		{
			"type" : "Feature",
			"geometry" : {
				"type" : "Point",
				"coordinates" : [ 5.721680223343791, 59.00182480819769 ]
			},
			"properties" : {
				"Gatenavn" : "Husebøhagen"
			}
		},
		{
			"type" : "Feature",
			"geometry" : {
				"type" : "Point",
				"coordinates" : [ 5.697079275649243, 58.94488656535685 ]
			},
			"properties" : {
				"Gatenavn" : "Gangarstien"
			}
		},
		{
			"type" : "Feature",
			"geometry" : {
				"type" : "Point",
				"coordinates" : [ 5.6533052484753235, 58.952732348735495 ]
			},
			"properties" : {
				"Gatenavn" : "Kornstien"
			}
		},
		{
			"type" : "Feature",
			"geometry" : {
				"type" : "Point",
				"coordinates" : [ 5.7337807710341355, 58.9095831313586 ]
			},
			"properties" : {
				"Gatenavn" : "Gauselstraen"
			}
		},
		{
			"type" : "Feature",
			"geometry" : {
				"type" : "Point",
				"coordinates" : [ 5.71500637774584, 58.9025509585862 ]
			},
			"properties" : {
				"Gatenavn" : "Grasheibakken"
			}
		},
		{
			"type" : "Feature",
			"geometry" : {
				"type" : "Point",
				"coordinates" : [ 5.7347234159600395, 58.96176932130537 ]
			},
			"properties" : {
				"Gatenavn" : "Muségata"
			}
		},
		{
			"type" : "Feature",
			"geometry" : {
				"type" : "Point",
				"coordinates" : [ 5.733675609236529, 59.00416935996312 ]
			},
			"properties" : {
				"Gatenavn" : "Brosmeveien"
			}
		},
		{
			"type" : "Feature",
			"geometry" : {
				"type" : "Point",
				"coordinates" : [ 5.7023859168821245, 58.983373687757535 ]
			},
			"properties" : {
				"Gatenavn" : "Bakkebråtet"
			}
		},
		{
			"type" : "Feature",
			"geometry" : {
				"type" : "Point",
				"coordinates" : [ 5.735975550745998, 58.968134357100894 ]
			},
			"properties" : {
				"Gatenavn" : "Bergelandsgata"
			}
		},
		{
			"type" : "Feature",
			"geometry" : {
				"type" : "Point",
				"coordinates" : [ 5.724018644032274, 58.947194930983784 ]
			},
			"properties" : {
				"Gatenavn" : "Kon Tiki-svingen"
			}
		},
		{
			"type" : "Feature",
			"geometry" : {
				"type" : "Point",
				"coordinates" : [ 5.73640387854209, 58.97291439818719 ]
			},
			"properties" : {
				"Gatenavn" : "Steinkarkaien"
			}
		},
		{
			"type" : "Feature",
			"geometry" : {
				"type" : "Point",
				"coordinates" : [ 5.755900416588484, 58.96356710449639 ]
			},
			"properties" : {
				"Gatenavn" : "Lindøygata"
			}
		},
		{
			"type" : "Feature",
			"geometry" : {
				"type" : "Point",
				"coordinates" : [ 5.7186493986025395, 58.94886572304724 ]
			},
			"properties" : {
				"Gatenavn" : "Leif Dietrichsons gate"
			}
		},
		{
			"type" : "Feature",
			"geometry" : {
				"type" : "Point",
				"coordinates" : [ 5.742331696948915, 58.95963245737771 ]
			},
			"properties" : {
				"Gatenavn" : "Consul Sigval Bergesens vei"
			}
		},
		{
			"type" : "Feature",
			"geometry" : {
				"type" : "Point",
				"coordinates" : [ 5.714505431353071, 58.94768151659182 ]
			},
			"properties" : {
				"Gatenavn" : "Trollstien"
			}
		},
		{
			"type" : "Feature",
			"geometry" : {
				"type" : "Point",
				"coordinates" : [ 5.68269738787261, 58.93416798882855 ]
			},
			"properties" : {
				"Gatenavn" : "Madlaveien"
			}
		},
		{
			"type" : "Feature",
			"geometry" : {
				"type" : "Point",
				"coordinates" : [ 5.697220764914676, 58.97857444871873 ]
			},
			"properties" : {
				"Gatenavn" : "Randabergveien"
			}
		},
		{
			"type" : "Feature",
			"geometry" : {
				"type" : "Point",
				"coordinates" : [ 5.693908960395452, 58.93474267361416 ]
			},
			"properties" : {
				"Gatenavn" : "Kristine Bonnevies vei"
			}
		},
		{
			"type" : "Feature",
			"geometry" : {
				"type" : "Point",
				"coordinates" : [ 5.749952711566966, 58.9402887544061 ]
			},
			"properties" : {
				"Gatenavn" : "Gandsbakken"
			}
		},
		{
			"type" : "Feature",
			"geometry" : {
				"type" : "Point",
				"coordinates" : [ 5.761173465806096, 58.96568729037756 ]
			},
			"properties" : {
				"Gatenavn" : "Breivikveien"
			}
		},
		{
			"type" : "Feature",
			"geometry" : {
				"type" : "Point",
				"coordinates" : [ 5.750917384769252, 58.939415150669745 ]
			},
			"properties" : {
				"Gatenavn" : "Skjeringen"
			}
		},
		{
			"type" : "Feature",
			"geometry" : {
				"type" : "Point",
				"coordinates" : [ 5.760832103159262, 58.986969741186506 ]
			},
			"properties" : {
				"Gatenavn" : "Ormøyveien"
			}
		},
		{
			"type" : "Feature",
			"geometry" : {
				"type" : "Point",
				"coordinates" : [ 5.7036833185732565, 58.958953762267846 ]
			},
			"properties" : {
				"Gatenavn" : "Eiganesveien"
			}
		},
		{
			"type" : "Feature",
			"geometry" : {
				"type" : "Point",
				"coordinates" : [ 5.7350056472763455, 58.92364837240548 ]
			},
			"properties" : {
				"Gatenavn" : "Hindalsveien"
			}
		},
		{
			"type" : "Feature",
			"geometry" : {
				"type" : "Point",
				"coordinates" : [ 5.695780139737669, 58.96336022648164 ]
			},
			"properties" : {
				"Gatenavn" : "Aurikkelstien"
			}
		},
		{
			"type" : "Feature",
			"geometry" : {
				"type" : "Point",
				"coordinates" : [ 5.732188290741748, 58.91132419564385 ]
			},
			"properties" : {
				"Gatenavn" : "Gauselvågen"
			}
		},
		{
			"type" : "Feature",
			"geometry" : {
				"type" : "Point",
				"coordinates" : [ 5.743720852156433, 58.94290061432751 ]
			},
			"properties" : {
				"Gatenavn" : "Øvre Sandvikveien"
			}
		},
		{
			"type" : "Feature",
			"geometry" : {
				"type" : "Point",
				"coordinates" : [ 5.723656902223104, 58.96908851423141 ]
			},
			"properties" : {
				"Gatenavn" : "Henrik Steffens gate"
			}
		},
		{
			"type" : "Feature",
			"geometry" : {
				"type" : "Point",
				"coordinates" : [ 5.72948282993729, 58.97257097025527 ]
			},
			"properties" : {
				"Gatenavn" : "Skagenkaien"
			}
		},
		{
			"type" : "Feature",
			"geometry" : {
				"type" : "Point",
				"coordinates" : [ 5.715922582849703, 58.9206040526531 ]
			},
			"properties" : {
				"Gatenavn" : "Vågedalsstubben"
			}
		},
		{
			"type" : "Feature",
			"geometry" : {
				"type" : "Point",
				"coordinates" : [ 5.701787069022851, 58.911514876141695 ]
			},
			"properties" : {
				"Gatenavn" : "Sandgådå"
			}
		},
		{
			"type" : "Feature",
			"geometry" : {
				"type" : "Point",
				"coordinates" : [ 5.735775448737987, 58.960523784829526 ]
			},
			"properties" : {
				"Gatenavn" : "Muségata"
			}
		},
		{
			"type" : "Feature",
			"geometry" : {
				"type" : "Point",
				"coordinates" : [ 5.718183380185775, 58.9646941122872 ]
			},
			"properties" : {
				"Gatenavn" : "Eiganesveien"
			}
		},
		{
			"type" : "Feature",
			"geometry" : {
				"type" : "Point",
				"coordinates" : [ 5.737005581010812, 58.958004715171846 ]
			},
			"properties" : {
				"Gatenavn" : "Rogalandsgata"
			}
		},
		{
			"type" : "Feature",
			"geometry" : {
				"type" : "Point",
				"coordinates" : [ 5.683179187622085, 58.96140295287462 ]
			},
			"properties" : {
				"Gatenavn" : "Vestbøtunet"
			}
		},
		{
			"type" : "Feature",
			"geometry" : {
				"type" : "Point",
				"coordinates" : [ 5.710042408097999, 58.94669081926098 ]
			},
			"properties" : {
				"Gatenavn" : "Peer Gynts vei"
			}
		},
		{
			"type" : "Feature",
			"geometry" : {
				"type" : "Point",
				"coordinates" : [ 5.742239143955225, 59.00653617266843 ]
			},
			"properties" : {
				"Gatenavn" : "Lundeveien"
			}
		},
		{
			"type" : "Feature",
			"geometry" : {
				"type" : "Point",
				"coordinates" : [ 5.6845238932490005, 58.99366952572948 ]
			},
			"properties" : {
				"Gatenavn" : "Storebakken"
			}
		},
		{
			"type" : "Feature",
			"geometry" : {
				"type" : "Point",
				"coordinates" : [ 5.687222390607, 58.96418655614274 ]
			},
			"properties" : {
				"Gatenavn" : "Stokkabrautene"
			}
		},
		{
			"type" : "Feature",
			"geometry" : {
				"type" : "Point",
				"coordinates" : [ 5.7088439903935075, 58.94858784431199 ]
			},
			"properties" : {
				"Gatenavn" : "Ole Bergesens gate"
			}
		},
		{
			"type" : "Feature",
			"geometry" : {
				"type" : "Point",
				"coordinates" : [ 5.732182489059646, 58.9632670844542 ]
			},
			"properties" : {
				"Gatenavn" : "Schives gate"
			}
		},
		{
			"type" : "Feature",
			"geometry" : {
				"type" : "Point",
				"coordinates" : [ 5.7122443227166215, 58.96808833705655 ]
			},
			"properties" : {
				"Gatenavn" : "Torfæus gate"
			}
		},
		{
			"type" : "Feature",
			"geometry" : {
				"type" : "Point",
				"coordinates" : [ 5.7511465923042335, 58.99363051215142 ]
			},
			"properties" : {
				"Gatenavn" : "Kuneset"
			}
		},
		{
			"type" : "Feature",
			"geometry" : {
				"type" : "Point",
				"coordinates" : [ 5.686526584085434, 58.951194647979264 ]
			},
			"properties" : {
				"Gatenavn" : "Sotes gate"
			}
		},
		{
			"type" : "Feature",
			"geometry" : {
				"type" : "Point",
				"coordinates" : [ 5.6105879229605256, 58.961592767761836 ]
			},
			"properties" : {
				"Gatenavn" : "Kvernevik Ring"
			}
		},
		{
			"type" : "Feature",
			"geometry" : {
				"type" : "Point",
				"coordinates" : [ 5.7025062843134435, 58.95266517683268 ]
			},
			"properties" : {
				"Gatenavn" : "Solborgveien"
			}
		},
		{
			"type" : "Feature",
			"geometry" : {
				"type" : "Point",
				"coordinates" : [ 5.689800108055988, 58.98868027317771 ]
			},
			"properties" : {
				"Gatenavn" : "Tastavollen"
			}
		},
		{
			"type" : "Feature",
			"geometry" : {
				"type" : "Point",
				"coordinates" : [ 5.7332959028177815, 58.971044543554854 ]
			},
			"properties" : {
				"Gatenavn" : "Arneageren"
			}
		},
		{
			"type" : "Feature",
			"geometry" : {
				"type" : "Point",
				"coordinates" : [ 5.688390326231024, 58.944935160707594 ]
			},
			"properties" : {
				"Gatenavn" : "Madlavollveien"
			}
		},
		{
			"type" : "Feature",
			"geometry" : {
				"type" : "Point",
				"coordinates" : [ 5.708190359349652, 58.96880408455591 ]
			},
			"properties" : {
				"Gatenavn" : "Birkebeinerveien"
			}
		},
		{
			"type" : "Feature",
			"geometry" : {
				"type" : "Point",
				"coordinates" : [ 5.728836828173987, 58.964295526922896 ]
			},
			"properties" : {
				"Gatenavn" : "Arkitekt Eckhoffs gate"
			}
		},
		{
			"type" : "Feature",
			"geometry" : {
				"type" : "Point",
				"coordinates" : [ 5.744229397529179, 58.94043044605925 ]
			},
			"properties" : {
				"Gatenavn" : "Knausen"
			}
		},
		{
			"type" : "Feature",
			"geometry" : {
				"type" : "Point",
				"coordinates" : [ 5.64373510004342, 58.96515328699245 ]
			},
			"properties" : {
				"Gatenavn" : "Krossbergveien"
			}
		},
		{
			"type" : "Feature",
			"geometry" : {
				"type" : "Point",
				"coordinates" : [ 5.732295079891727, 58.96099806359344 ]
			},
			"properties" : {
				"Gatenavn" : "Kaptein Langes gate"
			}
		},
		{
			"type" : "Feature",
			"geometry" : {
				"type" : "Point",
				"coordinates" : [ 5.7290636739688985, 58.95949489431513 ]
			},
			"properties" : {
				"Gatenavn" : "Hilmands gate"
			}
		},
		{
			"type" : "Feature",
			"geometry" : {
				"type" : "Point",
				"coordinates" : [ 5.706669123747483, 58.97967617223898 ]
			},
			"properties" : {
				"Gatenavn" : "Neptunveien"
			}
		},
		{
			"type" : "Feature",
			"geometry" : {
				"type" : "Point",
				"coordinates" : [ 5.704513287452874, 58.915833033383294 ]
			},
			"properties" : {
				"Gatenavn" : "Rogstadmyrå"
			}
		},
		{
			"type" : "Feature",
			"geometry" : {
				"type" : "Point",
				"coordinates" : [ 5.713583683761922, 58.90318057897453 ]
			},
			"properties" : {
				"Gatenavn" : "Grasmyrveien"
			}
		},
		{
			"type" : "Feature",
			"geometry" : {
				"type" : "Point",
				"coordinates" : [ 5.610004557176237, 58.97194224307047 ]
			},
			"properties" : {
				"Gatenavn" : "Havørnbrautene"
			}
		},
		{
			"type" : "Feature",
			"geometry" : {
				"type" : "Point",
				"coordinates" : [ 5.700844391220027, 58.90397985516204 ]
			},
			"properties" : {
				"Gatenavn" : "Kontorveien"
			}
		},
		{
			"type" : "Feature",
			"geometry" : {
				"type" : "Point",
				"coordinates" : [ 5.740806509008425, 58.967381879087675 ]
			},
			"properties" : {
				"Gatenavn" : "Jelsagata"
			}
		},
		{
			"type" : "Feature",
			"geometry" : {
				"type" : "Point",
				"coordinates" : [ 5.624644908103625, 58.962381556409824 ]
			},
			"properties" : {
				"Gatenavn" : "Ekrehaugen"
			}
		},
		{
			"type" : "Feature",
			"geometry" : {
				"type" : "Point",
				"coordinates" : [ 5.7515548166842825, 58.99288599190508 ]
			},
			"properties" : {
				"Gatenavn" : "Dalasteinveien"
			}
		},
		{
			"type" : "Feature",
			"geometry" : {
				"type" : "Point",
				"coordinates" : [ 5.719899614570058, 58.943634120338594 ]
			},
			"properties" : {
				"Gatenavn" : "Nilsebuveien"
			}
		},
		{
			"type" : "Feature",
			"geometry" : {
				"type" : "Point",
				"coordinates" : [ 5.663471855739028, 58.98873800552333 ]
			},
			"properties" : {
				"Gatenavn" : "Randabergveien"
			}
		},
		{
			"type" : "Feature",
			"geometry" : {
				"type" : "Point",
				"coordinates" : [ 5.745743423663578, 58.93783262173264 ]
			},
			"properties" : {
				"Gatenavn" : "Sommerrostubben"
			}
		},
		{
			"type" : "Feature",
			"geometry" : {
				"type" : "Point",
				"coordinates" : [ 5.695636204771815, 58.96439426827274 ]
			},
			"properties" : {
				"Gatenavn" : "Syrinveien"
			}
		},
		{
			"type" : "Feature",
			"geometry" : {
				"type" : "Point",
				"coordinates" : [ 5.708571594321758, 58.95129452437491 ]
			},
			"properties" : {
				"Gatenavn" : "Bjørnstjerne Bjørnsons gate"
			}
		},
		{
			"type" : "Feature",
			"geometry" : {
				"type" : "Point",
				"coordinates" : [ 5.691513578705813, 58.993614757547526 ]
			},
			"properties" : {
				"Gatenavn" : "Skogstøstraen"
			}
		},
		{
			"type" : "Feature",
			"geometry" : {
				"type" : "Point",
				"coordinates" : [ 5.714394902091967, 58.90223702304025 ]
			},
			"properties" : {
				"Gatenavn" : "Grasheibakken"
			}
		},
		{
			"type" : "Feature",
			"geometry" : {
				"type" : "Point",
				"coordinates" : [ 5.690830982500185, 58.98977590801547 ]
			},
			"properties" : {
				"Gatenavn" : "Skiferveien"
			}
		},
		{
			"type" : "Feature",
			"geometry" : {
				"type" : "Point",
				"coordinates" : [ 5.601694780320593, 58.96632006765235 ]
			},
			"properties" : {
				"Gatenavn" : "Lomviveien"
			}
		},
		{
			"type" : "Feature",
			"geometry" : {
				"type" : "Point",
				"coordinates" : [ 5.720100728922996, 59.00487299650984 ]
			},
			"properties" : {
				"Gatenavn" : "Høvedsmannsveien"
			}
		},
		{
			"type" : "Feature",
			"geometry" : {
				"type" : "Point",
				"coordinates" : [ 5.6727411241815835, 58.94393186133846 ]
			},
			"properties" : {
				"Gatenavn" : "Snorres gate"
			}
		},
		{
			"type" : "Feature",
			"geometry" : {
				"type" : "Point",
				"coordinates" : [ 5.751944083169348, 58.99332357098145 ]
			},
			"properties" : {
				"Gatenavn" : "Kuneset"
			}
		},
		{
			"type" : "Feature",
			"geometry" : {
				"type" : "Point",
				"coordinates" : [ 5.719044646021458, 58.91497527713649 ]
			},
			"properties" : {
				"Gatenavn" : "Valheimveien"
			}
		},
		{
			"type" : "Feature",
			"geometry" : {
				"type" : "Point",
				"coordinates" : [ 5.6971284297318725, 58.96320493604071 ]
			},
			"properties" : {
				"Gatenavn" : "Blomsterveien"
			}
		},
		{
			"type" : "Feature",
			"geometry" : {
				"type" : "Point",
				"coordinates" : [ 5.744291456428583, 58.948477448729825 ]
			},
			"properties" : {
				"Gatenavn" : "Baneveien"
			}
		},
		{
			"type" : "Feature",
			"geometry" : {
				"type" : "Point",
				"coordinates" : [ 5.719038746513535, 58.96056893247429 ]
			},
			"properties" : {
				"Gatenavn" : "Nedre Torfæus' gate"
			}
		},
		{
			"type" : "Feature",
			"geometry" : {
				"type" : "Point",
				"coordinates" : [ 5.730253047903438, 58.96903650009004 ]
			},
			"properties" : {
				"Gatenavn" : "Haakon VIIs gate"
			}
		},
		{
			"type" : "Feature",
			"geometry" : {
				"type" : "Point",
				"coordinates" : [ 5.7602153309013975, 58.98791119380882 ]
			},
			"properties" : {
				"Gatenavn" : "Ormøydalen"
			}
		},
		{
			"type" : "Feature",
			"geometry" : {
				"type" : "Point",
				"coordinates" : [ 5.732665531222763, 58.98859016462297 ]
			},
			"properties" : {
				"Gatenavn" : "Buøy Ring"
			}
		},
		{
			"type" : "Feature",
			"geometry" : {
				"type" : "Point",
				"coordinates" : [ 5.80870629985738, 58.99184840233331 ]
			},
			"properties" : {
				"Gatenavn" : "Lindøy"
			}
		},
		{
			"type" : "Feature",
			"geometry" : {
				"type" : "Point",
				"coordinates" : [ 5.70961281604731, 58.954349321425994 ]
			},
			"properties" : {
				"Gatenavn" : "Mostunveien"
			}
		},
		{
			"type" : "Feature",
			"geometry" : {
				"type" : "Point",
				"coordinates" : [ 5.720195670889638, 58.89793535444335 ]
			},
			"properties" : {
				"Gatenavn" : "Heddeveien"
			}
		},
		{
			"type" : "Feature",
			"geometry" : {
				"type" : "Point",
				"coordinates" : [ 5.687113362410284, 58.99213666225345 ]
			},
			"properties" : {
				"Gatenavn" : "Midtbakken"
			}
		},
		{
			"type" : "Feature",
			"geometry" : {
				"type" : "Point",
				"coordinates" : [ 5.745107911371521, 58.937714528167916 ]
			},
			"properties" : {
				"Gatenavn" : "Langflåtveien"
			}
		},
		{
			"type" : "Feature",
			"geometry" : {
				"type" : "Point",
				"coordinates" : [ 5.741092306182508, 58.95380077065407 ]
			},
			"properties" : {
				"Gatenavn" : "Falcks gate"
			}
		},
		{
			"type" : "Feature",
			"geometry" : {
				"type" : "Point",
				"coordinates" : [ 5.717001870260838, 59.00258905608379 ]
			},
			"properties" : {
				"Gatenavn" : "Knivskjellveien"
			}
		},
		{
			"type" : "Feature",
			"geometry" : {
				"type" : "Point",
				"coordinates" : [ 5.681748204297379, 58.946175471932406 ]
			},
			"properties" : {
				"Gatenavn" : "Haraldskroken"
			}
		},
		{
			"type" : "Feature",
			"geometry" : {
				"type" : "Point",
				"coordinates" : [ 5.69475023302619, 58.966209436999286 ]
			},
			"properties" : {
				"Gatenavn" : "Theodor Kittelsens vei"
			}
		},
		{
			"type" : "Feature",
			"geometry" : {
				"type" : "Point",
				"coordinates" : [ 5.7430244132337505, 58.94864118991795 ]
			},
			"properties" : {
				"Gatenavn" : "Hillevågsveien"
			}
		},
		{
			"type" : "Feature",
			"geometry" : {
				"type" : "Point",
				"coordinates" : [ 5.654283791212463, 58.95242152428149 ]
			},
			"properties" : {
				"Gatenavn" : "Byggstien"
			}
		},
		{
			"type" : "Feature",
			"geometry" : {
				"type" : "Point",
				"coordinates" : [ 5.727155131460206, 58.96894224046141 ]
			},
			"properties" : {
				"Gatenavn" : "Klinkenberggata"
			}
		},
		{
			"type" : "Feature",
			"geometry" : {
				"type" : "Point",
				"coordinates" : [ 5.678887269857675, 58.99540097869392 ]
			},
			"properties" : {
				"Gatenavn" : "Varaldsøyveien"
			}
		},
		{
			"type" : "Feature",
			"geometry" : {
				"type" : "Point",
				"coordinates" : [ 5.764310218765678, 58.99185891505989 ]
			},
			"properties" : {
				"Gatenavn" : "Austrevigå"
			}
		},
		{
			"type" : "Feature",
			"geometry" : {
				"type" : "Point",
				"coordinates" : [ 5.720519667809612, 58.94451400542096 ]
			},
			"properties" : {
				"Gatenavn" : "Lysebuveien"
			}
		},
		{
			"type" : "Feature",
			"geometry" : {
				"type" : "Point",
				"coordinates" : [ 5.735474206256779, 58.96641281803038 ]
			},
			"properties" : {
				"Gatenavn" : "Bergelandsgata"
			}
		},
		{
			"type" : "Feature",
			"geometry" : {
				"type" : "Point",
				"coordinates" : [ 5.736234059373848, 58.98288176190472 ]
			},
			"properties" : {
				"Gatenavn" : "Pyntesundveien"
			}
		},
		{
			"type" : "Feature",
			"geometry" : {
				"type" : "Point",
				"coordinates" : [ 5.6821868714183585, 58.982641521544885 ]
			},
			"properties" : {
				"Gatenavn" : "Maiblombakken"
			}
		},
		{
			"type" : "Feature",
			"geometry" : {
				"type" : "Point",
				"coordinates" : [ 5.734989884500052, 58.96621266125306 ]
			},
			"properties" : {
				"Gatenavn" : "Bergelandstunnelen"
			}
		},
		{
			"type" : "Feature",
			"geometry" : {
				"type" : "Point",
				"coordinates" : [ 5.65374956171266, 58.97253991961289 ]
			},
			"properties" : {
				"Gatenavn" : "Friheim"
			}
		},
		{
			"type" : "Feature",
			"geometry" : {
				"type" : "Point",
				"coordinates" : [ 5.72257359841099, 58.94063500720588 ]
			},
			"properties" : {
				"Gatenavn" : "Sørmarkveien"
			}
		},
		{
			"type" : "Feature",
			"geometry" : {
				"type" : "Point",
				"coordinates" : [ 5.726872300020345, 58.904753858950485 ]
			},
			"properties" : {
				"Gatenavn" : "Glassbegerveien"
			}
		},
		{
			"type" : "Feature",
			"geometry" : {
				"type" : "Point",
				"coordinates" : [ 5.741698760099929, 58.990939371202515 ]
			},
			"properties" : {
				"Gatenavn" : "Øvre Vågen"
			}
		},
		{
			"type" : "Feature",
			"geometry" : {
				"type" : "Point",
				"coordinates" : [ 5.667607383835637, 58.994476786665366 ]
			},
			"properties" : {
				"Gatenavn" : "Finnestadveien"
			}
		},
		{
			"type" : "Feature",
			"geometry" : {
				"type" : "Point",
				"coordinates" : [ 5.706853115130889, 58.9622884181377 ]
			},
			"properties" : {
				"Gatenavn" : "Advokat Bergs gate"
			}
		},
		{
			"type" : "Feature",
			"geometry" : {
				"type" : "Point",
				"coordinates" : [ 5.7304051051017515, 58.98585881490356 ]
			},
			"properties" : {
				"Gatenavn" : "Nyhavnsveien"
			}
		},
		{
			"type" : "Feature",
			"geometry" : {
				"type" : "Point",
				"coordinates" : [ 5.717211747077577, 58.92051825051816 ]
			},
			"properties" : {
				"Gatenavn" : "Vågedalsstubben"
			}
		},
		{
			"type" : "Feature",
			"geometry" : {
				"type" : "Point",
				"coordinates" : [ 5.736787100732226, 58.928213112880414 ]
			},
			"properties" : {
				"Gatenavn" : "Mosestien"
			}
		},
		{
			"type" : "Feature",
			"geometry" : {
				"type" : "Point",
				"coordinates" : [ 5.718994566588249, 58.97835256175479 ]
			},
			"properties" : {
				"Gatenavn" : "Veritasveien"
			}
		},
		{
			"type" : "Feature",
			"geometry" : {
				"type" : "Point",
				"coordinates" : [ 5.738162081697428, 58.98618647021798 ]
			},
			"properties" : {
				"Gatenavn" : "Fregattveien"
			}
		},
		{
			"type" : "Feature",
			"geometry" : {
				"type" : "Point",
				"coordinates" : [ 5.732594079265198, 58.9052472400325 ]
			},
			"properties" : {
				"Gatenavn" : "Gullspennetunet"
			}
		},
		{
			"type" : "Feature",
			"geometry" : {
				"type" : "Point",
				"coordinates" : [ 5.737232573548907, 58.940913178172885 ]
			},
			"properties" : {
				"Gatenavn" : "Eikåsveien"
			}
		},
		{
			"type" : "Feature",
			"geometry" : {
				"type" : "Point",
				"coordinates" : [ 5.67237462395784, 58.94820350697371 ]
			},
			"properties" : {
				"Gatenavn" : "Madlaforkroken"
			}
		},
		{
			"type" : "Feature",
			"geometry" : {
				"type" : "Point",
				"coordinates" : [ 5.747676187930253, 58.97002448129386 ]
			},
			"properties" : {
				"Gatenavn" : "Grensesteinsgata"
			}
		},
		{
			"type" : "Feature",
			"geometry" : {
				"type" : "Point",
				"coordinates" : [ 5.684276942658287, 58.94269054629368 ]
			},
			"properties" : {
				"Gatenavn" : "Jernalderveien"
			}
		},
		{
			"type" : "Feature",
			"geometry" : {
				"type" : "Point",
				"coordinates" : [ 5.683744437087438, 58.956593632045674 ]
			},
			"properties" : {
				"Gatenavn" : "Sandal Terrasse"
			}
		},
		{
			"type" : "Feature",
			"geometry" : {
				"type" : "Point",
				"coordinates" : [ 5.709119694663338, 58.9065828247858 ]
			},
			"properties" : {
				"Gatenavn" : "Storeholsveien"
			}
		},
		{
			"type" : "Feature",
			"geometry" : {
				"type" : "Point",
				"coordinates" : [ 5.739729702281224, 58.928487088347396 ]
			},
			"properties" : {
				"Gatenavn" : "Holteveien"
			}
		},
		{
			"type" : "Feature",
			"geometry" : {
				"type" : "Point",
				"coordinates" : [ 5.68393423084944, 58.96051527380498 ]
			},
			"properties" : {
				"Gatenavn" : "Botaniker Resvolls gate"
			}
		},
		{
			"type" : "Feature",
			"geometry" : {
				"type" : "Point",
				"coordinates" : [ 5.723925231541915, 58.94200994924581 ]
			},
			"properties" : {
				"Gatenavn" : "Sørmarkkroken"
			}
		},
		{
			"type" : "Feature",
			"geometry" : {
				"type" : "Point",
				"coordinates" : [ 5.635267651459823, 58.95516566885225 ]
			},
			"properties" : {
				"Gatenavn" : "Rytterkroken"
			}
		},
		{
			"type" : "Feature",
			"geometry" : {
				"type" : "Point",
				"coordinates" : [ 5.711887937541064, 58.95242765295119 ]
			},
			"properties" : {
				"Gatenavn" : "Mosvangen"
			}
		},
		{
			"type" : "Feature",
			"geometry" : {
				"type" : "Point",
				"coordinates" : [ 5.716208361632292, 58.92243777504146 ]
			},
			"properties" : {
				"Gatenavn" : "Sørlitunet"
			}
		},
		{
			"type" : "Feature",
			"geometry" : {
				"type" : "Point",
				"coordinates" : [ 5.695206635507878, 58.983628548355696 ]
			},
			"properties" : {
				"Gatenavn" : "Fagerstølveien"
			}
		},
		{
			"type" : "Feature",
			"geometry" : {
				"type" : "Point",
				"coordinates" : [ 5.71603615230727, 58.9027514187947 ]
			},
			"properties" : {
				"Gatenavn" : "Grashaugveien"
			}
		},
		{
			"type" : "Feature",
			"geometry" : {
				"type" : "Point",
				"coordinates" : [ 5.680966399706407, 58.95015748236984 ]
			},
			"properties" : {
				"Gatenavn" : "Margretes gate"
			}
		},
		{
			"type" : "Feature",
			"geometry" : {
				"type" : "Point",
				"coordinates" : [ 5.711694335175682, 58.97336456425599 ]
			},
			"properties" : {
				"Gatenavn" : "Karmøyveien"
			}
		},
		{
			"type" : "Feature",
			"geometry" : {
				"type" : "Point",
				"coordinates" : [ 5.742509939638229, 58.96922948231629 ]
			},
			"properties" : {
				"Gatenavn" : "Risbakken"
			}
		},
		{
			"type" : "Feature",
			"geometry" : {
				"type" : "Point",
				"coordinates" : [ 5.740811904878521, 59.00597284964992 ]
			},
			"properties" : {
				"Gatenavn" : "Lundesvingene"
			}
		},
		{
			"type" : "Feature",
			"geometry" : {
				"type" : "Point",
				"coordinates" : [ 5.7390924496285844, 58.949675734897475 ]
			},
			"properties" : {
				"Gatenavn" : "Mygeveien"
			}
		},
		{
			"type" : "Feature",
			"geometry" : {
				"type" : "Point",
				"coordinates" : [ 5.738501765506918, 58.9937553072966 ]
			},
			"properties" : {
				"Gatenavn" : "Hundvåg Ring"
			}
		},
		{
			"type" : "Feature",
			"geometry" : {
				"type" : "Point",
				"coordinates" : [ 5.729603063155065, 58.9108955027431 ]
			},
			"properties" : {
				"Gatenavn" : "Gauselvågen"
			}
		},
		{
			"type" : "Feature",
			"geometry" : {
				"type" : "Point",
				"coordinates" : [ 5.672768236367537, 58.94365052253713 ]
			},
			"properties" : {
				"Gatenavn" : "Ragnhilds gate"
			}
		},
		{
			"type" : "Feature",
			"geometry" : {
				"type" : "Point",
				"coordinates" : [ 5.739752690732159, 58.95984247610108 ]
			},
			"properties" : {
				"Gatenavn" : "Jørgen Erichsens gate"
			}
		},
		{
			"type" : "Feature",
			"geometry" : {
				"type" : "Point",
				"coordinates" : [ 5.733481374625622, 58.972278272954334 ]
			},
			"properties" : {
				"Gatenavn" : "Breigata"
			}
		},
		{
			"type" : "Feature",
			"geometry" : {
				"type" : "Point",
				"coordinates" : [ 5.735228068234269, 58.933576704188795 ]
			},
			"properties" : {
				"Gatenavn" : "Lalla Carlsens gate"
			}
		},
		{
			"type" : "Feature",
			"geometry" : {
				"type" : "Point",
				"coordinates" : [ 5.707779839234228, 58.98334228561972 ]
			},
			"properties" : {
				"Gatenavn" : "Steinsøyveien"
			}
		},
		{
			"type" : "Feature",
			"geometry" : {
				"type" : "Point",
				"coordinates" : [ 5.752404905896468, 58.94268838432974 ]
			},
			"properties" : {
				"Gatenavn" : "Sjøhagen"
			}
		},
		{
			"type" : "Feature",
			"geometry" : {
				"type" : "Point",
				"coordinates" : [ 5.658476574471967, 58.989646012616085 ]
			},
			"properties" : {
				"Gatenavn" : "Randabergveien"
			}
		},
		{
			"type" : "Feature",
			"geometry" : {
				"type" : "Point",
				"coordinates" : [ 5.749069734428172, 58.963601753099624 ]
			},
			"properties" : {
				"Gatenavn" : "Endre Dahls gate"
			}
		},
		{
			"type" : "Feature",
			"geometry" : {
				"type" : "Point",
				"coordinates" : [ 5.717536834157995, 58.96532237995781 ]
			},
			"properties" : {
				"Gatenavn" : "Bretlandsgata"
			}
		},
		{
			"type" : "Feature",
			"geometry" : {
				"type" : "Point",
				"coordinates" : [ 5.656871919071859, 58.98828972673709 ]
			},
			"properties" : {
				"Gatenavn" : "Høyehaugen"
			}
		},
		{
			"type" : "Feature",
			"geometry" : {
				"type" : "Point",
				"coordinates" : [ 5.735910579086822, 58.95544969436985 ]
			},
			"properties" : {
				"Gatenavn" : "Arne Garborgs vei"
			}
		},
		{
			"type" : "Feature",
			"geometry" : {
				"type" : "Point",
				"coordinates" : [ 5.729796388126907, 58.95553598225204 ]
			},
			"properties" : {
				"Gatenavn" : "Søren Årstads vei"
			}
		},
		{
			"type" : "Feature",
			"geometry" : {
				"type" : "Point",
				"coordinates" : [ 5.704524099212922, 58.96800851355649 ]
			},
			"properties" : {
				"Gatenavn" : "Rikard Nordraaks vei"
			}
		},
		{
			"type" : "Feature",
			"geometry" : {
				"type" : "Point",
				"coordinates" : [ 5.7170779532029465, 58.92605385805292 ]
			},
			"properties" : {
				"Gatenavn" : "Vestliveien"
			}
		},
		{
			"type" : "Feature",
			"geometry" : {
				"type" : "Point",
				"coordinates" : [ 5.721649105982375, 58.963037965227365 ]
			},
			"properties" : {
				"Gatenavn" : "Kannikgata"
			}
		},
		{
			"type" : "Feature",
			"geometry" : {
				"type" : "Point",
				"coordinates" : [ 5.7422578102988675, 58.93889728818398 ]
			},
			"properties" : {
				"Gatenavn" : "Gulaksveien"
			}
		},
		{
			"type" : "Feature",
			"geometry" : {
				"type" : "Point",
				"coordinates" : [ 5.6901235307325, 58.93698404497226 ]
			},
			"properties" : {
				"Gatenavn" : "Kristine Bonnevies vei"
			}
		},
		{
			"type" : "Feature",
			"geometry" : {
				"type" : "Point",
				"coordinates" : [ 5.7292018906586755, 58.89922051219235 ]
			},
			"properties" : {
				"Gatenavn" : "Kvieberget"
			}
		},
		{
			"type" : "Feature",
			"geometry" : {
				"type" : "Point",
				"coordinates" : [ 5.767623720574431, 58.99080410949046 ]
			},
			"properties" : {
				"Gatenavn" : "Roaldsøyveien"
			}
		},
		{
			"type" : "Feature",
			"geometry" : {
				"type" : "Point",
				"coordinates" : [ 5.663465042062673, 58.94005997508209 ]
			},
			"properties" : {
				"Gatenavn" : "Kiellandsstien"
			}
		},
		{
			"type" : "Feature",
			"geometry" : {
				"type" : "Point",
				"coordinates" : [ 5.746657330308987, 58.99665604384329 ]
			},
			"properties" : {
				"Gatenavn" : "Børeringen"
			}
		},
		{
			"type" : "Feature",
			"geometry" : {
				"type" : "Point",
				"coordinates" : [ 5.786860288540678, 58.993744220619625 ]
			},
			"properties" : {
				"Gatenavn" : "Regeberget"
			}
		},
		{
			"type" : "Feature",
			"geometry" : {
				"type" : "Point",
				"coordinates" : [ 5.733450564587475, 58.96147960012411 ]
			},
			"properties" : {
				"Gatenavn" : "Herman Beckers plass"
			}
		},
		{
			"type" : "Feature",
			"geometry" : {
				"type" : "Point",
				"coordinates" : [ 5.694785196867092, 58.96376306858747 ]
			},
			"properties" : {
				"Gatenavn" : "Alperoseveien"
			}
		},
		{
			"type" : "Feature",
			"geometry" : {
				"type" : "Point",
				"coordinates" : [ 5.730883751571466, 58.96186006879892 ]
			},
			"properties" : {
				"Gatenavn" : "Rektor Steens gate"
			}
		},
		{
			"type" : "Feature",
			"geometry" : {
				"type" : "Point",
				"coordinates" : [ 5.744507958628766, 58.96763697407096 ]
			},
			"properties" : {
				"Gatenavn" : "Lysefjordgata"
			}
		},
		{
			"type" : "Feature",
			"geometry" : {
				"type" : "Point",
				"coordinates" : [ 5.747727773231658, 58.942807618914635 ]
			},
			"properties" : {
				"Gatenavn" : "Sjøhagen"
			}
		},
		{
			"type" : "Feature",
			"geometry" : {
				"type" : "Point",
				"coordinates" : [ 5.753860072212259, 58.93897230083931 ]
			},
			"properties" : {
				"Gatenavn" : "Bruvikveien"
			}
		},
		{
			"type" : "Feature",
			"geometry" : {
				"type" : "Point",
				"coordinates" : [ 5.714516836957891, 58.972204538834404 ]
			},
			"properties" : {
				"Gatenavn" : "Kampens plass"
			}
		},
		{
			"type" : "Feature",
			"geometry" : {
				"type" : "Point",
				"coordinates" : [ 5.712727018504527, 58.89926037219111 ]
			},
			"properties" : {
				"Gatenavn" : "Folkvangveien"
			}
		},
		{
			"type" : "Feature",
			"geometry" : {
				"type" : "Point",
				"coordinates" : [ 5.728618870344343, 58.93235688520348 ]
			},
			"properties" : {
				"Gatenavn" : "Auglendhagen"
			}
		},
		{
			"type" : "Feature",
			"geometry" : {
				"type" : "Point",
				"coordinates" : [ 5.676779507280058, 58.94848883454915 ]
			},
			"properties" : {
				"Gatenavn" : "Gunhilds gate"
			}
		},
		{
			"type" : "Feature",
			"geometry" : {
				"type" : "Point",
				"coordinates" : [ 5.7068250139645125, 58.948109210733236 ]
			},
			"properties" : {
				"Gatenavn" : "Johannes Johnsens gate"
			}
		},
		{
			"type" : "Feature",
			"geometry" : {
				"type" : "Point",
				"coordinates" : [ 5.694165123043142, 58.97812519559755 ]
			},
			"properties" : {
				"Gatenavn" : "Rødknappbakken"
			}
		},
		{
			"type" : "Feature",
			"geometry" : {
				"type" : "Point",
				"coordinates" : [ 5.725591349175218, 58.933949930626525 ]
			},
			"properties" : {
				"Gatenavn" : "Snarehaugen"
			}
		},
		{
			"type" : "Feature",
			"geometry" : {
				"type" : "Point",
				"coordinates" : [ 5.782953300847897, 58.99600712183592 ]
			},
			"properties" : {
				"Gatenavn" : "Nesahaugen"
			}
		},
		{
			"type" : "Feature",
			"geometry" : {
				"type" : "Point",
				"coordinates" : [ 5.720791123591812, 58.92216122199652 ]
			},
			"properties" : {
				"Gatenavn" : "Vågedalen"
			}
		},
		{
			"type" : "Feature",
			"geometry" : {
				"type" : "Point",
				"coordinates" : [ 5.602761348681567, 58.97131419868598 ]
			},
			"properties" : {
				"Gatenavn" : "Alkeveien"
			}
		},
		{
			"type" : "Feature",
			"geometry" : {
				"type" : "Point",
				"coordinates" : [ 5.6126942724195406, 58.96275889160979 ]
			},
			"properties" : {
				"Gatenavn" : "Duganekroken"
			}
		},
		{
			"type" : "Feature",
			"geometry" : {
				"type" : "Point",
				"coordinates" : [ 5.7250568606285155, 58.966494561533814 ]
			},
			"properties" : {
				"Gatenavn" : "Jens Zetlitz' gate"
			}
		},
		{
			"type" : "Feature",
			"geometry" : {
				"type" : "Point",
				"coordinates" : [ 5.687176031687677, 58.98034827117191 ]
			},
			"properties" : {
				"Gatenavn" : "Kornblomstsvingen"
			}
		},
		{
			"type" : "Feature",
			"geometry" : {
				"type" : "Point",
				"coordinates" : [ 5.712501897389305, 58.96558293088522 ]
			},
			"properties" : {
				"Gatenavn" : "Holbergs gate"
			}
		},
		{
			"type" : "Feature",
			"geometry" : {
				"type" : "Point",
				"coordinates" : [ 5.718084848073761, 58.90198739857838 ]
			},
			"properties" : {
				"Gatenavn" : "Kisteberglia"
			}
		},
		{
			"type" : "Feature",
			"geometry" : {
				"type" : "Point",
				"coordinates" : [ 5.7330180594172635, 58.962521024539306 ]
			},
			"properties" : {
				"Gatenavn" : "Kong Carls gate"
			}
		},
		{
			"type" : "Feature",
			"geometry" : {
				"type" : "Point",
				"coordinates" : [ 5.724682806061068, 58.99573933751222 ]
			},
			"properties" : {
				"Gatenavn" : "Vestrikroken"
			}
		},
		{
			"type" : "Feature",
			"geometry" : {
				"type" : "Point",
				"coordinates" : [ 5.7358475170374055, 58.91424795995117 ]
			},
			"properties" : {
				"Gatenavn" : "Boganeskroken"
			}
		},
		{
			"type" : "Feature",
			"geometry" : {
				"type" : "Point",
				"coordinates" : [ 5.711602613248221, 58.97818166012068 ]
			},
			"properties" : {
				"Gatenavn" : "Utsikten"
			}
		},
		{
			"type" : "Feature",
			"geometry" : {
				"type" : "Point",
				"coordinates" : [ 5.7408358625968665, 58.96932203294069 ]
			},
			"properties" : {
				"Gatenavn" : "Øvre Blåsenborg"
			}
		},
		{
			"type" : "Feature",
			"geometry" : {
				"type" : "Point",
				"coordinates" : [ 5.7449353958295974, 58.96875058684468 ]
			},
			"properties" : {
				"Gatenavn" : "Nymansveien"
			}
		},
		{
			"type" : "Feature",
			"geometry" : {
				"type" : "Point",
				"coordinates" : [ 5.730336683669555, 58.90638997001493 ]
			},
			"properties" : {
				"Gatenavn" : "Sølvspenneveien"
			}
		},
		{
			"type" : "Feature",
			"geometry" : {
				"type" : "Point",
				"coordinates" : [ 5.731428384089108, 58.97357184588897 ]
			},
			"properties" : {
				"Gatenavn" : "Holmeallmenningen"
			}
		},
		{
			"type" : "Feature",
			"geometry" : {
				"type" : "Point",
				"coordinates" : [ 5.684017304335313, 58.95055276322396 ]
			},
			"properties" : {
				"Gatenavn" : "Klovsteinveien"
			}
		},
		{
			"type" : "Feature",
			"geometry" : {
				"type" : "Point",
				"coordinates" : [ 5.734733327024257, 58.97121925134679 ]
			},
			"properties" : {
				"Gatenavn" : "Søregata"
			}
		},
		{
			"type" : "Feature",
			"geometry" : {
				"type" : "Point",
				"coordinates" : [ 5.689474092079497, 58.94008589902873 ]
			},
			"properties" : {
				"Gatenavn" : "Madlamarkveien"
			}
		},
		{
			"type" : "Feature",
			"geometry" : {
				"type" : "Point",
				"coordinates" : [ 5.699735179791424, 58.968195033986234 ]
			},
			"properties" : {
				"Gatenavn" : "Harriet Backers vei"
			}
		},
		{
			"type" : "Feature",
			"geometry" : {
				"type" : "Point",
				"coordinates" : [ 5.754248078487969, 58.963653988484765 ]
			},
			"properties" : {
				"Gatenavn" : "Karlsminnegata"
			}
		},
		{
			"type" : "Feature",
			"geometry" : {
				"type" : "Point",
				"coordinates" : [ 5.7203466416701465, 58.924139807581476 ]
			},
			"properties" : {
				"Gatenavn" : "Haugliveien"
			}
		},
		{
			"type" : "Feature",
			"geometry" : {
				"type" : "Point",
				"coordinates" : [ 5.715576713340327, 58.96484165664763 ]
			},
			"properties" : {
				"Gatenavn" : "Bretlandsgata"
			}
		},
		{
			"type" : "Feature",
			"geometry" : {
				"type" : "Point",
				"coordinates" : [ 5.720177411761449, 58.93522066436063 ]
			},
			"properties" : {
				"Gatenavn" : "Dalsetveien"
			}
		},
		{
			"type" : "Feature",
			"geometry" : {
				"type" : "Point",
				"coordinates" : [ 5.720593498387229, 58.993167959073716 ]
			},
			"properties" : {
				"Gatenavn" : "Colin Archers vei"
			}
		},
		{
			"type" : "Feature",
			"geometry" : {
				"type" : "Point",
				"coordinates" : [ 5.673817325712884, 58.990967586181625 ]
			},
			"properties" : {
				"Gatenavn" : "Dusavikhagen"
			}
		},
		{
			"type" : "Feature",
			"geometry" : {
				"type" : "Point",
				"coordinates" : [ 5.72032639341862, 58.91293260350382 ]
			},
			"properties" : {
				"Gatenavn" : "Valheimveien"
			}
		},
		{
			"type" : "Feature",
			"geometry" : {
				"type" : "Point",
				"coordinates" : [ 5.706471717381311, 58.97004403663593 ]
			},
			"properties" : {
				"Gatenavn" : "Byhaugveien"
			}
		},
		{
			"type" : "Feature",
			"geometry" : {
				"type" : "Point",
				"coordinates" : [ 5.741581290808568, 58.90309909942924 ]
			},
			"properties" : {
				"Gatenavn" : "Sandholmveien"
			}
		},
		{
			"type" : "Feature",
			"geometry" : {
				"type" : "Point",
				"coordinates" : [ 5.724704413222225, 58.91884724437811 ]
			},
			"properties" : {
				"Gatenavn" : "Boganesveien"
			}
		},
		{
			"type" : "Feature",
			"geometry" : {
				"type" : "Point",
				"coordinates" : [ 5.750935239669956, 58.955011314112234 ]
			},
			"properties" : {
				"Gatenavn" : "Godalstunet"
			}
		},
		{
			"type" : "Feature",
			"geometry" : {
				"type" : "Point",
				"coordinates" : [ 5.692213090449402, 58.96336619794025 ]
			},
			"properties" : {
				"Gatenavn" : "Eføysvingen"
			}
		},
		{
			"type" : "Feature",
			"geometry" : {
				"type" : "Point",
				"coordinates" : [ 5.663492088653086, 58.947416057502124 ]
			},
			"properties" : {
				"Gatenavn" : "Kompani Linges vei"
			}
		},
		{
			"type" : "Feature",
			"geometry" : {
				"type" : "Point",
				"coordinates" : [ 5.7151913610750364, 58.959646645090935 ]
			},
			"properties" : {
				"Gatenavn" : "Nordahl Griegs vei"
			}
		},
		{
			"type" : "Feature",
			"geometry" : {
				"type" : "Point",
				"coordinates" : [ 5.736755478108055, 58.929939769049 ]
			},
			"properties" : {
				"Gatenavn" : "Tverrhallet"
			}
		},
		{
			"type" : "Feature",
			"geometry" : {
				"type" : "Point",
				"coordinates" : [ 5.702750113293551, 58.8963519907228 ]
			},
			"properties" : {
				"Gatenavn" : "Lagerveien"
			}
		},
		{
			"type" : "Feature",
			"geometry" : {
				"type" : "Point",
				"coordinates" : [ 5.697381006558355, 58.99055344771791 ]
			},
			"properties" : {
				"Gatenavn" : "Kvartsveien"
			}
		},
		{
			"type" : "Feature",
			"geometry" : {
				"type" : "Point",
				"coordinates" : [ 5.746478375364913, 58.967914561585786 ]
			},
			"properties" : {
				"Gatenavn" : "Karlsminnegata"
			}
		},
		{
			"type" : "Feature",
			"geometry" : {
				"type" : "Point",
				"coordinates" : [ 5.753169326335597, 58.96091844583818 ]
			},
			"properties" : {
				"Gatenavn" : "Nedstrandsgata"
			}
		},
		{
			"type" : "Feature",
			"geometry" : {
				"type" : "Point",
				"coordinates" : [ 5.693818533710498, 58.962042016276364 ]
			},
			"properties" : {
				"Gatenavn" : "Snøklokkestien"
			}
		},
		{
			"type" : "Feature",
			"geometry" : {
				"type" : "Point",
				"coordinates" : [ 5.740815406703562, 58.99211704030427 ]
			},
			"properties" : {
				"Gatenavn" : "Drivgarnsveien"
			}
		},
		{
			"type" : "Feature",
			"geometry" : {
				"type" : "Point",
				"coordinates" : [ 5.7444631737797405, 59.00602107042598 ]
			},
			"properties" : {
				"Gatenavn" : "Lundeveien"
			}
		},
		{
			"type" : "Feature",
			"geometry" : {
				"type" : "Point",
				"coordinates" : [ 5.727943999799855, 58.951280776644744 ]
			},
			"properties" : {
				"Gatenavn" : "Ullandhaugveien"
			}
		},
		{
			"type" : "Feature",
			"geometry" : {
				"type" : "Point",
				"coordinates" : [ 5.7252434205417035, 58.96202698408893 ]
			},
			"properties" : {
				"Gatenavn" : "Tjodolvs gate"
			}
		},
		{
			"type" : "Feature",
			"geometry" : {
				"type" : "Point",
				"coordinates" : [ 5.723666613501068, 58.94819557887522 ]
			},
			"properties" : {
				"Gatenavn" : "Hans Egedes gate"
			}
		},
		{
			"type" : "Feature",
			"geometry" : {
				"type" : "Point",
				"coordinates" : [ 5.749050670596331, 58.97075080796275 ]
			},
			"properties" : {
				"Gatenavn" : "Gitlesmauet"
			}
		},
		{
			"type" : "Feature",
			"geometry" : {
				"type" : "Point",
				"coordinates" : [ 5.739363259797801, 58.904728126749475 ]
			},
			"properties" : {
				"Gatenavn" : "Gauselkneiken"
			}
		},
		{
			"type" : "Feature",
			"geometry" : {
				"type" : "Point",
				"coordinates" : [ 5.687093149196087, 58.982102168355574 ]
			},
			"properties" : {
				"Gatenavn" : "Smietunet"
			}
		},
		{
			"type" : "Feature",
			"geometry" : {
				"type" : "Point",
				"coordinates" : [ 5.681408751515467, 58.95567528698185 ]
			},
			"properties" : {
				"Gatenavn" : "Stareveien"
			}
		},
		{
			"type" : "Feature",
			"geometry" : {
				"type" : "Point",
				"coordinates" : [ 5.707388130776846, 58.95102936006723 ]
			},
			"properties" : {
				"Gatenavn" : "Olav Aukrusts gate"
			}
		},
		{
			"type" : "Feature",
			"geometry" : {
				"type" : "Point",
				"coordinates" : [ 5.748939638057171, 58.995120650568374 ]
			},
			"properties" : {
				"Gatenavn" : "Hundvåg Ring"
			}
		},
		{
			"type" : "Feature",
			"geometry" : {
				"type" : "Point",
				"coordinates" : [ 5.7643279568784065, 58.99468211673385 ]
			},
			"properties" : {
				"Gatenavn" : "Nordvikveien"
			}
		},
		{
			"type" : "Feature",
			"geometry" : {
				"type" : "Point",
				"coordinates" : [ 5.741303825529157, 58.913669475911206 ]
			},
			"properties" : {
				"Gatenavn" : "Boganeset"
			}
		},
		{
			"type" : "Feature",
			"geometry" : {
				"type" : "Point",
				"coordinates" : [ 5.698625894765815, 58.953383674226 ]
			},
			"properties" : {
				"Gatenavn" : "Gunnar Warebergs gate"
			}
		},
		{
			"type" : "Feature",
			"geometry" : {
				"type" : "Point",
				"coordinates" : [ 5.717283488901816, 58.973556502289554 ]
			},
			"properties" : {
				"Gatenavn" : "Tanke Svilands gate"
			}
		},
		{
			"type" : "Feature",
			"geometry" : {
				"type" : "Point",
				"coordinates" : [ 5.763371968435581, 58.96059397870286 ]
			},
			"properties" : {
				"Gatenavn" : "Rasmus Risas gate"
			}
		},
		{
			"type" : "Feature",
			"geometry" : {
				"type" : "Point",
				"coordinates" : [ 5.744334315619275, 58.970124024962765 ]
			},
			"properties" : {
				"Gatenavn" : "Mellomgata"
			}
		},
		{
			"type" : "Feature",
			"geometry" : {
				"type" : "Point",
				"coordinates" : [ 5.67717878800011, 58.94811019992774 ]
			},
			"properties" : {
				"Gatenavn" : "Birgittas gate"
			}
		},
		{
			"type" : "Feature",
			"geometry" : {
				"type" : "Point",
				"coordinates" : [ 5.690205490749858, 58.96582266883598 ]
			},
			"properties" : {
				"Gatenavn" : "Stokkabrautene"
			}
		},
		{
			"type" : "Feature",
			"geometry" : {
				"type" : "Point",
				"coordinates" : [ 5.64139891360247, 58.93174761366165 ]
			},
			"properties" : {
				"Gatenavn" : "Håhammarbrautene"
			}
		},
		{
			"type" : "Feature",
			"geometry" : {
				"type" : "Point",
				"coordinates" : [ 5.6981778258159546, 58.96161988278705 ]
			},
			"properties" : {
				"Gatenavn" : "Riddersporen"
			}
		},
		{
			"type" : "Feature",
			"geometry" : {
				"type" : "Point",
				"coordinates" : [ 5.695846569782999, 58.979061000387475 ]
			},
			"properties" : {
				"Gatenavn" : "Midtunveien"
			}
		},
		{
			"type" : "Feature",
			"geometry" : {
				"type" : "Point",
				"coordinates" : [ 5.725786781971768, 58.92171744716596 ]
			},
			"properties" : {
				"Gatenavn" : "Heimdalsveien"
			}
		},
		{
			"type" : "Feature",
			"geometry" : {
				"type" : "Point",
				"coordinates" : [ 5.721551777087633, 58.91052094352761 ]
			},
			"properties" : {
				"Gatenavn" : "Boremarkveien"
			}
		},
		{
			"type" : "Feature",
			"geometry" : {
				"type" : "Point",
				"coordinates" : [ 5.74028164554445, 58.964153553967684 ]
			},
			"properties" : {
				"Gatenavn" : "Sandsgata"
			}
		},
		{
			"type" : "Feature",
			"geometry" : {
				"type" : "Point",
				"coordinates" : [ 5.685687851522028, 58.9419656472768 ]
			},
			"properties" : {
				"Gatenavn" : "Sophus Bugges gate"
			}
		},
		{
			"type" : "Feature",
			"geometry" : {
				"type" : "Point",
				"coordinates" : [ 5.7099613297330505, 58.962496326734126 ]
			},
			"properties" : {
				"Gatenavn" : "Kroken"
			}
		},
		{
			"type" : "Feature",
			"geometry" : {
				"type" : "Point",
				"coordinates" : [ 5.7489150592365545, 58.896909468182756 ]
			},
			"properties" : {
				"Gatenavn" : "Midtgårdveien"
			}
		},
		{
			"type" : "Feature",
			"geometry" : {
				"type" : "Point",
				"coordinates" : [ 5.642643605807297, 58.94006748782644 ]
			},
			"properties" : {
				"Gatenavn" : "Ospebergleitet"
			}
		},
		{
			"type" : "Feature",
			"geometry" : {
				"type" : "Point",
				"coordinates" : [ 5.730930842586878, 58.9306930846873 ]
			},
			"properties" : {
				"Gatenavn" : "Auglendsbakken"
			}
		},
		{
			"type" : "Feature",
			"geometry" : {
				"type" : "Point",
				"coordinates" : [ 5.748476127688018, 58.993303246959364 ]
			},
			"properties" : {
				"Gatenavn" : "Grønndalsveien"
			}
		},
		{
			"type" : "Feature",
			"geometry" : {
				"type" : "Point",
				"coordinates" : [ 5.713155591879786, 58.961821329004486 ]
			},
			"properties" : {
				"Gatenavn" : "Wergelands gate"
			}
		},
		{
			"type" : "Feature",
			"geometry" : {
				"type" : "Point",
				"coordinates" : [ 5.7386724563145926, 58.91589456040868 ]
			},
			"properties" : {
				"Gatenavn" : "Laberghagen"
			}
		},
		{
			"type" : "Feature",
			"geometry" : {
				"type" : "Point",
				"coordinates" : [ 5.7241666085098295, 58.968288225166674 ]
			},
			"properties" : {
				"Gatenavn" : "Klinkenberggata"
			}
		},
		{
			"type" : "Feature",
			"geometry" : {
				"type" : "Point",
				"coordinates" : [ 5.665182649926802, 58.99684650851046 ]
			},
			"properties" : {
				"Gatenavn" : "Notberget"
			}
		},
		{
			"type" : "Feature",
			"geometry" : {
				"type" : "Point",
				"coordinates" : [ 5.709043388621361, 58.899938987727936 ]
			},
			"properties" : {
				"Gatenavn" : "Godesetdalen"
			}
		},
		{
			"type" : "Feature",
			"geometry" : {
				"type" : "Point",
				"coordinates" : [ 5.704810152727187, 58.97207687085369 ]
			},
			"properties" : {
				"Gatenavn" : "Carl Sundt Hansens gate"
			}
		},
		{
			"type" : "Feature",
			"geometry" : {
				"type" : "Point",
				"coordinates" : [ 5.7315930131566475, 58.985107011808815 ]
			},
			"properties" : {
				"Gatenavn" : "Nyhavnsveien"
			}
		},
		{
			"type" : "Feature",
			"geometry" : {
				"type" : "Point",
				"coordinates" : [ 5.737337477544512, 58.97058169439151 ]
			},
			"properties" : {
				"Gatenavn" : "Nykirkebakken"
			}
		},
		{
			"type" : "Feature",
			"geometry" : {
				"type" : "Point",
				"coordinates" : [ 5.686149828215069, 58.963649829247544 ]
			},
			"properties" : {
				"Gatenavn" : "Stokkabrautene"
			}
		},
		{
			"type" : "Feature",
			"geometry" : {
				"type" : "Point",
				"coordinates" : [ 5.739124297361702, 59.00718302362379 ]
			},
			"properties" : {
				"Gatenavn" : "Lundesvingene"
			}
		},
		{
			"type" : "Feature",
			"geometry" : {
				"type" : "Point",
				"coordinates" : [ 5.699191946360745, 58.97661044461814 ]
			},
			"properties" : {
				"Gatenavn" : "Øvre Sjøveien"
			}
		},
		{
			"type" : "Feature",
			"geometry" : {
				"type" : "Point",
				"coordinates" : [ 5.720727979038476, 58.89500614929129 ]
			},
			"properties" : {
				"Gatenavn" : "Grevlingstien"
			}
		},
		{
			"type" : "Feature",
			"geometry" : {
				"type" : "Point",
				"coordinates" : [ 5.689386859359699, 58.99393774758504 ]
			},
			"properties" : {
				"Gatenavn" : "Skogstøveien"
			}
		},
		{
			"type" : "Feature",
			"geometry" : {
				"type" : "Point",
				"coordinates" : [ 5.707642889935566, 58.96128941237864 ]
			},
			"properties" : {
				"Gatenavn" : "Advokat Bergs gate"
			}
		},
		{
			"type" : "Feature",
			"geometry" : {
				"type" : "Point",
				"coordinates" : [ 5.7344569146043565, 58.96613305354908 ]
			},
			"properties" : {
				"Gatenavn" : "Bergelandsbrua"
			}
		},
		{
			"type" : "Feature",
			"geometry" : {
				"type" : "Point",
				"coordinates" : [ 5.745223219552384, 58.99584813881943 ]
			},
			"properties" : {
				"Gatenavn" : "Djubingen"
			}
		},
		{
			"type" : "Feature",
			"geometry" : {
				"type" : "Point",
				"coordinates" : [ 5.7114759952734815, 58.97746680431775 ]
			},
			"properties" : {
				"Gatenavn" : "Kaptein Mejlænders gate"
			}
		},
		{
			"type" : "Feature",
			"geometry" : {
				"type" : "Point",
				"coordinates" : [ 5.74508616367088, 58.991959412808164 ]
			},
			"properties" : {
				"Gatenavn" : "Gåsemyrveien"
			}
		},
		{
			"type" : "Feature",
			"geometry" : {
				"type" : "Point",
				"coordinates" : [ 5.737255065727089, 58.935363574459636 ]
			},
			"properties" : {
				"Gatenavn" : "Bevreveien"
			}
		},
		{
			"type" : "Feature",
			"geometry" : {
				"type" : "Point",
				"coordinates" : [ 5.738760410861555, 58.96870260847999 ]
			},
			"properties" : {
				"Gatenavn" : "Kirkestien"
			}
		},
		{
			"type" : "Feature",
			"geometry" : {
				"type" : "Point",
				"coordinates" : [ 5.6634151474772185, 58.95144027806314 ]
			},
			"properties" : {
				"Gatenavn" : "Kompani Linges vei"
			}
		},
		{
			"type" : "Feature",
			"geometry" : {
				"type" : "Point",
				"coordinates" : [ 5.739818685581423, 59.0044782070268 ]
			},
			"properties" : {
				"Gatenavn" : "Lundesvingene"
			}
		},
		{
			"type" : "Feature",
			"geometry" : {
				"type" : "Point",
				"coordinates" : [ 5.742675168823507, 58.97211468014456 ]
			},
			"properties" : {
				"Gatenavn" : "Bekhuskaien"
			}
		},
		{
			"type" : "Feature",
			"geometry" : {
				"type" : "Point",
				"coordinates" : [ 5.736194902615963, 58.96096928440937 ]
			},
			"properties" : {
				"Gatenavn" : "Christian Jacobsens gate"
			}
		},
		{
			"type" : "Feature",
			"geometry" : {
				"type" : "Point",
				"coordinates" : [ 5.757203727082413, 58.96430009201663 ]
			},
			"properties" : {
				"Gatenavn" : "Krossgata"
			}
		},
		{
			"type" : "Feature",
			"geometry" : {
				"type" : "Point",
				"coordinates" : [ 5.7492810816927555, 58.96782407738412 ]
			},
			"properties" : {
				"Gatenavn" : "Øvre Suldalsgate"
			}
		},
		{
			"type" : "Feature",
			"geometry" : {
				"type" : "Point",
				"coordinates" : [ 5.724960985383804, 58.94174023524617 ]
			},
			"properties" : {
				"Gatenavn" : "Sørmarkkroken"
			}
		},
		{
			"type" : "Feature",
			"geometry" : {
				"type" : "Point",
				"coordinates" : [ 5.661464371755358, 58.97224648399857 ]
			},
			"properties" : {
				"Gatenavn" : "Leikvollbakken"
			}
		},
		{
			"type" : "Feature",
			"geometry" : {
				"type" : "Point",
				"coordinates" : [ 5.717217659885902, 58.980190556809504 ]
			},
			"properties" : {
				"Gatenavn" : "Veritashammaren"
			}
		},
		{
			"type" : "Feature",
			"geometry" : {
				"type" : "Point",
				"coordinates" : [ 5.687517224758836, 58.95869091877195 ]
			},
			"properties" : {
				"Gatenavn" : "Lektor Mosgrens gate"
			}
		},
		{
			"type" : "Feature",
			"geometry" : {
				"type" : "Point",
				"coordinates" : [ 5.735057369487676, 58.99228544702736 ]
			},
			"properties" : {
				"Gatenavn" : "Nedre Vågen"
			}
		},
		{
			"type" : "Feature",
			"geometry" : {
				"type" : "Point",
				"coordinates" : [ 5.727535282596034, 58.93191997421366 ]
			},
			"properties" : {
				"Gatenavn" : "Auglendhagen"
			}
		},
		{
			"type" : "Feature",
			"geometry" : {
				"type" : "Point",
				"coordinates" : [ 5.6686300728437775, 58.99420149496562 ]
			},
			"properties" : {
				"Gatenavn" : "Tastamyrveien"
			}
		},
		{
			"type" : "Feature",
			"geometry" : {
				"type" : "Point",
				"coordinates" : [ 5.73792542783016, 58.96732776265307 ]
			},
			"properties" : {
				"Gatenavn" : "Kongsteinsgata"
			}
		},
		{
			"type" : "Feature",
			"geometry" : {
				"type" : "Point",
				"coordinates" : [ 5.692812261190461, 58.94012066140775 ]
			},
			"properties" : {
				"Gatenavn" : "Kristine Bonnevies vei"
			}
		},
		{
			"type" : "Feature",
			"geometry" : {
				"type" : "Point",
				"coordinates" : [ 5.733042867729393, 58.98595762538117 ]
			},
			"properties" : {
				"Gatenavn" : "Idrettsbakken"
			}
		},
		{
			"type" : "Feature",
			"geometry" : {
				"type" : "Point",
				"coordinates" : [ 5.7259217918803476, 59.003681876457875 ]
			},
			"properties" : {
				"Gatenavn" : "Berggyltveien"
			}
		},
		{
			"type" : "Feature",
			"geometry" : {
				"type" : "Point",
				"coordinates" : [ 5.637165172020695, 58.96263702437091 ]
			},
			"properties" : {
				"Gatenavn" : "Krossbergveien"
			}
		},
		{
			"type" : "Feature",
			"geometry" : {
				"type" : "Point",
				"coordinates" : [ 5.708543474181518, 58.97963508051543 ]
			},
			"properties" : {
				"Gatenavn" : "Bergstien"
			}
		},
		{
			"type" : "Feature",
			"geometry" : {
				"type" : "Point",
				"coordinates" : [ 5.723640352170859, 59.00270920947096 ]
			},
			"properties" : {
				"Gatenavn" : "Terje Vigens vei"
			}
		},
		{
			"type" : "Feature",
			"geometry" : {
				"type" : "Point",
				"coordinates" : [ 5.723854701784525, 58.960777582046596 ]
			},
			"properties" : {
				"Gatenavn" : "Tjodolvs gate"
			}
		},
		{
			"type" : "Feature",
			"geometry" : {
				"type" : "Point",
				"coordinates" : [ 5.72608989939711, 58.9146669707145 ]
			},
			"properties" : {
				"Gatenavn" : "Prost Kløvstads gate"
			}
		},
		{
			"type" : "Feature",
			"geometry" : {
				"type" : "Point",
				"coordinates" : [ 5.660311218866669, 58.9534963684062 ]
			},
			"properties" : {
				"Gatenavn" : "Ragveien"
			}
		},
		{
			"type" : "Feature",
			"geometry" : {
				"type" : "Point",
				"coordinates" : [ 5.749149256392861, 58.9384222525966 ]
			},
			"properties" : {
				"Gatenavn" : "Zetlitzveien"
			}
		},
		{
			"type" : "Feature",
			"geometry" : {
				"type" : "Point",
				"coordinates" : [ 5.731030446139886, 58.994527269773116 ]
			},
			"properties" : {
				"Gatenavn" : "Hundvågveien"
			}
		},
		{
			"type" : "Feature",
			"geometry" : {
				"type" : "Point",
				"coordinates" : [ 5.68183535679025, 58.99087498107324 ]
			},
			"properties" : {
				"Gatenavn" : "Gjerdeveien"
			}
		},
		{
			"type" : "Feature",
			"geometry" : {
				"type" : "Point",
				"coordinates" : [ 5.706267634148278, 58.899242783192065 ]
			},
			"properties" : {
				"Gatenavn" : "Maskinveien"
			}
		},
		{
			"type" : "Feature",
			"geometry" : {
				"type" : "Point",
				"coordinates" : [ 5.745709874000852, 58.93977927639151 ]
			},
			"properties" : {
				"Gatenavn" : "Buhagen"
			}
		},
		{
			"type" : "Feature",
			"geometry" : {
				"type" : "Point",
				"coordinates" : [ 5.738656917790646, 58.952766105725665 ]
			},
			"properties" : {
				"Gatenavn" : "Øvrebøveien"
			}
		},
		{
			"type" : "Feature",
			"geometry" : {
				"type" : "Point",
				"coordinates" : [ 5.727195747820294, 58.96462006556258 ]
			},
			"properties" : {
				"Gatenavn" : "Kannikgata"
			}
		},
		{
			"type" : "Feature",
			"geometry" : {
				"type" : "Point",
				"coordinates" : [ 5.732615270839394, 58.9100565970562 ]
			},
			"properties" : {
				"Gatenavn" : "Gauselstraen"
			}
		},
		{
			"type" : "Feature",
			"geometry" : {
				"type" : "Point",
				"coordinates" : [ 5.724416261098922, 58.97461146815575 ]
			},
			"properties" : {
				"Gatenavn" : "Nedre Strandgate"
			}
		},
		{
			"type" : "Feature",
			"geometry" : {
				"type" : "Point",
				"coordinates" : [ 5.700543641384988, 58.97877878138623 ]
			},
			"properties" : {
				"Gatenavn" : "Nestunveien"
			}
		},
		{
			"type" : "Feature",
			"geometry" : {
				"type" : "Point",
				"coordinates" : [ 5.68876968749438, 58.96317533900973 ]
			},
			"properties" : {
				"Gatenavn" : "Stokkatunet"
			}
		},
		{
			"type" : "Feature",
			"geometry" : {
				"type" : "Point",
				"coordinates" : [ 5.678993280216002, 58.940069524621414 ]
			},
			"properties" : {
				"Gatenavn" : "Sommerbakken"
			}
		},
		{
			"type" : "Feature",
			"geometry" : {
				"type" : "Point",
				"coordinates" : [ 5.7343459868429765, 58.96137809240188 ]
			},
			"properties" : {
				"Gatenavn" : "Grensegata"
			}
		},
		{
			"type" : "Feature",
			"geometry" : {
				"type" : "Point",
				"coordinates" : [ 5.754592711003354, 58.956486513916886 ]
			},
			"properties" : {
				"Gatenavn" : "Sørnestunet"
			}
		},
		{
			"type" : "Feature",
			"geometry" : {
				"type" : "Point",
				"coordinates" : [ 5.735943692704448, 58.89155485162534 ]
			},
			"properties" : {
				"Gatenavn" : "Forusbeen"
			}
		},
		{
			"type" : "Feature",
			"geometry" : {
				"type" : "Point",
				"coordinates" : [ 5.732517928107832, 58.95105967920306 ]
			},
			"properties" : {
				"Gatenavn" : "Andrées gate"
			}
		},
		{
			"type" : "Feature",
			"geometry" : {
				"type" : "Point",
				"coordinates" : [ 5.719641485181854, 58.90124797899432 ]
			},
			"properties" : {
				"Gatenavn" : "Kistebergstien"
			}
		},
		{
			"type" : "Feature",
			"geometry" : {
				"type" : "Point",
				"coordinates" : [ 5.7459621752536965, 58.989587094915656 ]
			},
			"properties" : {
				"Gatenavn" : "Færingbakken"
			}
		},
		{
			"type" : "Feature",
			"geometry" : {
				"type" : "Point",
				"coordinates" : [ 5.713141369397956, 58.91901819644024 ]
			},
			"properties" : {
				"Gatenavn" : "Vestre Vågedalsveien"
			}
		},
		{
			"type" : "Feature",
			"geometry" : {
				"type" : "Point",
				"coordinates" : [ 5.686786500249292, 58.991464465964 ]
			},
			"properties" : {
				"Gatenavn" : "Øvre Teinebakken"
			}
		},
		{
			"type" : "Feature",
			"geometry" : {
				"type" : "Point",
				"coordinates" : [ 5.730862412727658, 58.97293776206125 ]
			},
			"properties" : {
				"Gatenavn" : "Valberggata"
			}
		},
		{
			"type" : "Feature",
			"geometry" : {
				"type" : "Point",
				"coordinates" : [ 5.692376346157054, 58.98703211855552 ]
			},
			"properties" : {
				"Gatenavn" : "Gjerdetunet"
			}
		},
		{
			"type" : "Feature",
			"geometry" : {
				"type" : "Point",
				"coordinates" : [ 5.707605134913689, 58.96753621893902 ]
			},
			"properties" : {
				"Gatenavn" : "Halfdan Kjerulfs vei"
			}
		},
		{
			"type" : "Feature",
			"geometry" : {
				"type" : "Point",
				"coordinates" : [ 5.747026444771549, 58.969021230337724 ]
			},
			"properties" : {
				"Gatenavn" : "Kjelvene"
			}
		},
		{
			"type" : "Feature",
			"geometry" : {
				"type" : "Point",
				"coordinates" : [ 5.756575576501817, 58.99845795226723 ]
			},
			"properties" : {
				"Gatenavn" : "Bjørnøystraen"
			}
		},
		{
			"type" : "Feature",
			"geometry" : {
				"type" : "Point",
				"coordinates" : [ 5.730081939689763, 58.966591518670036 ]
			},
			"properties" : {
				"Gatenavn" : "Kannikbakken"
			}
		},
		{
			"type" : "Feature",
			"geometry" : {
				"type" : "Point",
				"coordinates" : [ 5.635284929380573, 58.959001372884394 ]
			},
			"properties" : {
				"Gatenavn" : "Mimmarudlå"
			}
		},
		{
			"type" : "Feature",
			"geometry" : {
				"type" : "Point",
				"coordinates" : [ 5.736646666934486, 58.96127197285718 ]
			},
			"properties" : {
				"Gatenavn" : "Thiisabakken"
			}
		},
		{
			"type" : "Feature",
			"geometry" : {
				"type" : "Point",
				"coordinates" : [ 5.730175272338233, 58.9326294906351 ]
			},
			"properties" : {
				"Gatenavn" : "Johanne Dybwads gate"
			}
		},
		{
			"type" : "Feature",
			"geometry" : {
				"type" : "Point",
				"coordinates" : [ 5.73512392982136, 58.956126184241135 ]
			},
			"properties" : {
				"Gatenavn" : "Vidars gate"
			}
		},
		{
			"type" : "Feature",
			"geometry" : {
				"type" : "Point",
				"coordinates" : [ 5.652408036854224, 58.99289570998124 ]
			},
			"properties" : {
				"Gatenavn" : "Randabergveien"
			}
		},
		{
			"type" : "Feature",
			"geometry" : {
				"type" : "Point",
				"coordinates" : [ 5.7469639444687335, 58.960165188044506 ]
			},
			"properties" : {
				"Gatenavn" : "Frue Terrasse"
			}
		},
		{
			"type" : "Feature",
			"geometry" : {
				"type" : "Point",
				"coordinates" : [ 5.683381489932434, 58.99178481817333 ]
			},
			"properties" : {
				"Gatenavn" : "Midgardtunet"
			}
		},
		{
			"type" : "Feature",
			"geometry" : {
				"type" : "Point",
				"coordinates" : [ 5.686637833348755, 58.95091097063372 ]
			},
			"properties" : {
				"Gatenavn" : "Sotes gate"
			}
		},
		{
			"type" : "Feature",
			"geometry" : {
				"type" : "Point",
				"coordinates" : [ 5.742476095055557, 58.95342878005668 ]
			},
			"properties" : {
				"Gatenavn" : "Skjærabergveien"
			}
		},
		{
			"type" : "Feature",
			"geometry" : {
				"type" : "Point",
				"coordinates" : [ 5.750494509070548, 58.93118951047655 ]
			},
			"properties" : {
				"Gatenavn" : "Sørflåtveien"
			}
		},
		{
			"type" : "Feature",
			"geometry" : {
				"type" : "Point",
				"coordinates" : [ 5.673837070910101, 58.95341299148665 ]
			},
			"properties" : {
				"Gatenavn" : "Ragbakken"
			}
		},
		{
			"type" : "Feature",
			"geometry" : {
				"type" : "Point",
				"coordinates" : [ 5.633994117525128, 58.95596364442623 ]
			},
			"properties" : {
				"Gatenavn" : "Ryttersvingene"
			}
		},
		{
			"type" : "Feature",
			"geometry" : {
				"type" : "Point",
				"coordinates" : [ 5.64299249496699, 58.93763056333387 ]
			},
			"properties" : {
				"Gatenavn" : "Madlasandnes"
			}
		},
		{
			"type" : "Feature",
			"geometry" : {
				"type" : "Point",
				"coordinates" : [ 5.7261434780230225, 58.92481148166899 ]
			},
			"properties" : {
				"Gatenavn" : "Solliveien"
			}
		},
		{
			"type" : "Feature",
			"geometry" : {
				"type" : "Point",
				"coordinates" : [ 5.72462169157825, 58.973509663399156 ]
			},
			"properties" : {
				"Gatenavn" : "Blidensolstredet"
			}
		},
		{
			"type" : "Feature",
			"geometry" : {
				"type" : "Point",
				"coordinates" : [ 5.688770170669058, 58.995150052676905 ]
			},
			"properties" : {
				"Gatenavn" : "Røværveien"
			}
		},
		{
			"type" : "Feature",
			"geometry" : {
				"type" : "Point",
				"coordinates" : [ 5.712047779562992, 58.9043556396861 ]
			},
			"properties" : {
				"Gatenavn" : "Jåttåveien"
			}
		},
		{
			"type" : "Feature",
			"geometry" : {
				"type" : "Point",
				"coordinates" : [ 5.6982242729721575, 58.97382517869755 ]
			},
			"properties" : {
				"Gatenavn" : "Fjellfaret"
			}
		},
		{
			"type" : "Feature",
			"geometry" : {
				"type" : "Point",
				"coordinates" : [ 5.7409809599756185, 59.001232713577636 ]
			},
			"properties" : {
				"Gatenavn" : "Pepperhaugen"
			}
		},
		{
			"type" : "Feature",
			"geometry" : {
				"type" : "Point",
				"coordinates" : [ 5.752192346584291, 58.971788530908356 ]
			},
			"properties" : {
				"Gatenavn" : "Dokkgata"
			}
		},
		{
			"type" : "Feature",
			"geometry" : {
				"type" : "Point",
				"coordinates" : [ 5.721084462426418, 59.00722902595365 ]
			},
			"properties" : {
				"Gatenavn" : "Skeiehagen"
			}
		},
		{
			"type" : "Feature",
			"geometry" : {
				"type" : "Point",
				"coordinates" : [ 5.738077468070965, 58.99352217150364 ]
			},
			"properties" : {
				"Gatenavn" : "Settegarnsveien"
			}
		},
		{
			"type" : "Feature",
			"geometry" : {
				"type" : "Point",
				"coordinates" : [ 5.716821129564574, 58.91920961054443 ]
			},
			"properties" : {
				"Gatenavn" : "Vågedalsveien"
			}
		},
		{
			"type" : "Feature",
			"geometry" : {
				"type" : "Point",
				"coordinates" : [ 5.717834874382151, 58.97876909883922 ]
			},
			"properties" : {
				"Gatenavn" : "Kalhammarveien"
			}
		},
		{
			"type" : "Feature",
			"geometry" : {
				"type" : "Point",
				"coordinates" : [ 5.749571238063761, 58.97092251468675 ]
			},
			"properties" : {
				"Gatenavn" : "Spilderhaugsmauet"
			}
		},
		{
			"type" : "Feature",
			"geometry" : {
				"type" : "Point",
				"coordinates" : [ 5.610825358907711, 58.96639376421838 ]
			},
			"properties" : {
				"Gatenavn" : "Kvernevik sentrum"
			}
		},
		{
			"type" : "Feature",
			"geometry" : {
				"type" : "Point",
				"coordinates" : [ 5.701831587786562, 58.96472381845576 ]
			},
			"properties" : {
				"Gatenavn" : "Øvre Stokkavei"
			}
		},
		{
			"type" : "Feature",
			"geometry" : {
				"type" : "Point",
				"coordinates" : [ 5.71433623636329, 58.97197363710729 ]
			},
			"properties" : {
				"Gatenavn" : "Misjonsveien"
			}
		},
		{
			"type" : "Feature",
			"geometry" : {
				"type" : "Point",
				"coordinates" : [ 5.7228972716783755, 58.893034493444 ]
			},
			"properties" : {
				"Gatenavn" : "Forusbeen"
			}
		},
		{
			"type" : "Feature",
			"geometry" : {
				"type" : "Point",
				"coordinates" : [ 5.786749065882174, 58.99231472641887 ]
			},
			"properties" : {
				"Gatenavn" : "Sørstrandveien"
			}
		},
		{
			"type" : "Feature",
			"geometry" : {
				"type" : "Point",
				"coordinates" : [ 5.739089770205818, 58.901840354711624 ]
			},
			"properties" : {
				"Gatenavn" : "Gauselveien"
			}
		},
		{
			"type" : "Feature",
			"geometry" : {
				"type" : "Point",
				"coordinates" : [ 5.689632991299008, 58.94536649493251 ]
			},
			"properties" : {
				"Gatenavn" : "Norvald Frafjords gate"
			}
		},
		{
			"type" : "Feature",
			"geometry" : {
				"type" : "Point",
				"coordinates" : [ 5.736158906504, 58.97104294633952 ]
			},
			"properties" : {
				"Gatenavn" : "Pederstrappene"
			}
		},
		{
			"type" : "Feature",
			"geometry" : {
				"type" : "Point",
				"coordinates" : [ 5.696926161547044, 58.92587613223461 ]
			},
			"properties" : {
				"Gatenavn" : "Gamle Grannesveg"
			}
		},
		{
			"type" : "Feature",
			"geometry" : {
				"type" : "Point",
				"coordinates" : [ 5.6832643080031975, 58.93980088266645 ]
			},
			"properties" : {
				"Gatenavn" : "Sommerstien"
			}
		},
		{
			"type" : "Feature",
			"geometry" : {
				"type" : "Point",
				"coordinates" : [ 5.698356681020388, 58.943702529233875 ]
			},
			"properties" : {
				"Gatenavn" : "Olav Liljekransstien"
			}
		},
		{
			"type" : "Feature",
			"geometry" : {
				"type" : "Point",
				"coordinates" : [ 5.6970099374814795, 58.948014492009946 ]
			},
			"properties" : {
				"Gatenavn" : "Merkurveien"
			}
		},
		{
			"type" : "Feature",
			"geometry" : {
				"type" : "Point",
				"coordinates" : [ 5.675937968754832, 58.95052487011877 ]
			},
			"properties" : {
				"Gatenavn" : "Ellisivs gate"
			}
		},
		{
			"type" : "Feature",
			"geometry" : {
				"type" : "Point",
				"coordinates" : [ 5.730923428901881, 58.98658427122798 ]
			},
			"properties" : {
				"Gatenavn" : "Clipperveien"
			}
		},
		{
			"type" : "Feature",
			"geometry" : {
				"type" : "Point",
				"coordinates" : [ 5.712767920824693, 58.90973961294773 ]
			},
			"properties" : {
				"Gatenavn" : "Skogsbakken"
			}
		},
		{
			"type" : "Feature",
			"geometry" : {
				"type" : "Point",
				"coordinates" : [ 5.692068242003514, 58.982123067893866 ]
			},
			"properties" : {
				"Gatenavn" : "Fjellstøltunet"
			}
		},
		{
			"type" : "Feature",
			"geometry" : {
				"type" : "Point",
				"coordinates" : [ 5.759601356085899, 58.96205302564076 ]
			},
			"properties" : {
				"Gatenavn" : "Rosenli"
			}
		},
		{
			"type" : "Feature",
			"geometry" : {
				"type" : "Point",
				"coordinates" : [ 5.727832634321339, 58.92814391774999 ]
			},
			"properties" : {
				"Gatenavn" : "Sevjebråtet"
			}
		},
		{
			"type" : "Feature",
			"geometry" : {
				"type" : "Point",
				"coordinates" : [ 5.6923915895176185, 58.97950405770523 ]
			},
			"properties" : {
				"Gatenavn" : "Randabergveien"
			}
		},
		{
			"type" : "Feature",
			"geometry" : {
				"type" : "Point",
				"coordinates" : [ 5.754266339545397, 58.96741425602333 ]
			},
			"properties" : {
				"Gatenavn" : "Johannes' gate"
			}
		},
		{
			"type" : "Feature",
			"geometry" : {
				"type" : "Point",
				"coordinates" : [ 5.719702269441228, 59.00269824729227 ]
			},
			"properties" : {
				"Gatenavn" : "Rødskjellveien"
			}
		},
		{
			"type" : "Feature",
			"geometry" : {
				"type" : "Point",
				"coordinates" : [ 5.6832209049644735, 58.9386723472355 ]
			},
			"properties" : {
				"Gatenavn" : "Vårstien"
			}
		},
		{
			"type" : "Feature",
			"geometry" : {
				"type" : "Point",
				"coordinates" : [ 5.724839415248672, 58.96740282102729 ]
			},
			"properties" : {
				"Gatenavn" : "Eiganesveien"
			}
		},
		{
			"type" : "Feature",
			"geometry" : {
				"type" : "Point",
				"coordinates" : [ 5.697214539049505, 58.962536384690225 ]
			},
			"properties" : {
				"Gatenavn" : "Blomsterveien"
			}
		},
		{
			"type" : "Feature",
			"geometry" : {
				"type" : "Point",
				"coordinates" : [ 5.721151663229417, 58.925794457004024 ]
			},
			"properties" : {
				"Gatenavn" : "Bergliveien"
			}
		},
		{
			"type" : "Feature",
			"geometry" : {
				"type" : "Point",
				"coordinates" : [ 5.741160976631594, 58.93301156748738 ]
			},
			"properties" : {
				"Gatenavn" : "Langflåtveien"
			}
		},
		{
			"type" : "Feature",
			"geometry" : {
				"type" : "Point",
				"coordinates" : [ 5.729268817138739, 58.89730594792768 ]
			},
			"properties" : {
				"Gatenavn" : "Hjortestien"
			}
		},
		{
			"type" : "Feature",
			"geometry" : {
				"type" : "Point",
				"coordinates" : [ 5.6839716677185335, 58.987273756060915 ]
			},
			"properties" : {
				"Gatenavn" : "Elias Tastads gate"
			}
		},
		{
			"type" : "Feature",
			"geometry" : {
				"type" : "Point",
				"coordinates" : [ 5.680108281986352, 58.992202299542754 ]
			},
			"properties" : {
				"Gatenavn" : "Statfjordtunet"
			}
		},
		{
			"type" : "Feature",
			"geometry" : {
				"type" : "Point",
				"coordinates" : [ 5.737610876514778, 58.98697146807066 ]
			},
			"properties" : {
				"Gatenavn" : "Runeveien"
			}
		},
		{
			"type" : "Feature",
			"geometry" : {
				"type" : "Point",
				"coordinates" : [ 5.723466130358667, 58.97063323098353 ]
			},
			"properties" : {
				"Gatenavn" : "Midtgata"
			}
		},
		{
			"type" : "Feature",
			"geometry" : {
				"type" : "Point",
				"coordinates" : [ 5.730400481691083, 58.90979197183141 ]
			},
			"properties" : {
				"Gatenavn" : "Boganesringen"
			}
		},
		{
			"type" : "Feature",
			"geometry" : {
				"type" : "Point",
				"coordinates" : [ 5.719319769804472, 58.95889789931046 ]
			},
			"properties" : {
				"Gatenavn" : "Wildenveystien"
			}
		},
		{
			"type" : "Feature",
			"geometry" : {
				"type" : "Point",
				"coordinates" : [ 5.726502012946191, 58.949945394564914 ]
			},
			"properties" : {
				"Gatenavn" : "Oscar Wistings gate"
			}
		},
		{
			"type" : "Feature",
			"geometry" : {
				"type" : "Point",
				"coordinates" : [ 5.743026295400299, 58.94625226954101 ]
			},
			"properties" : {
				"Gatenavn" : "Bispeladegård"
			}
		},
		{
			"type" : "Feature",
			"geometry" : {
				"type" : "Point",
				"coordinates" : [ 5.68986016067391, 58.9810398288293 ]
			},
			"properties" : {
				"Gatenavn" : "Smiehagen"
			}
		},
		{
			"type" : "Feature",
			"geometry" : {
				"type" : "Point",
				"coordinates" : [ 5.665195087524523, 58.95262774509112 ]
			},
			"properties" : {
				"Gatenavn" : "Møldalsveien"
			}
		},
		{
			"type" : "Feature",
			"geometry" : {
				"type" : "Point",
				"coordinates" : [ 5.7553181987371005, 58.96366331426437 ]
			},
			"properties" : {
				"Gatenavn" : "Nymansveien"
			}
		},
		{
			"type" : "Feature",
			"geometry" : {
				"type" : "Point",
				"coordinates" : [ 5.682248458914918, 58.989216103348305 ]
			},
			"properties" : {
				"Gatenavn" : "Gullfakskroken"
			}
		},
		{
			"type" : "Feature",
			"geometry" : {
				"type" : "Point",
				"coordinates" : [ 5.756301731686191, 58.95854339264302 ]
			},
			"properties" : {
				"Gatenavn" : "Søre Ramsvigvei"
			}
		},
		{
			"type" : "Feature",
			"geometry" : {
				"type" : "Point",
				"coordinates" : [ 5.74248080355395, 58.934577212165536 ]
			},
			"properties" : {
				"Gatenavn" : "Langflåtveien"
			}
		},
		{
			"type" : "Feature",
			"geometry" : {
				"type" : "Point",
				"coordinates" : [ 5.705844471035411, 58.972622438848454 ]
			},
			"properties" : {
				"Gatenavn" : "Byhaugveien"
			}
		},
		{
			"type" : "Feature",
			"geometry" : {
				"type" : "Point",
				"coordinates" : [ 5.730211048039055, 58.89871642473272 ]
			},
			"properties" : {
				"Gatenavn" : "Kvietunet"
			}
		},
		{
			"type" : "Feature",
			"geometry" : {
				"type" : "Point",
				"coordinates" : [ 5.754355753855607, 58.969360395568714 ]
			},
			"properties" : {
				"Gatenavn" : "Støperigata"
			}
		},
		{
			"type" : "Feature",
			"geometry" : {
				"type" : "Point",
				"coordinates" : [ 5.749035196899364, 58.95818260287056 ]
			},
			"properties" : {
				"Gatenavn" : "Kristine Berges gate"
			}
		},
		{
			"type" : "Feature",
			"geometry" : {
				"type" : "Point",
				"coordinates" : [ 5.736468629407264, 58.98381365625922 ]
			},
			"properties" : {
				"Gatenavn" : "Buøy Ring"
			}
		},
		{
			"type" : "Feature",
			"geometry" : {
				"type" : "Point",
				"coordinates" : [ 5.731040865592024, 58.94276960575344 ]
			},
			"properties" : {
				"Gatenavn" : "Brattåsveien"
			}
		},
		{
			"type" : "Feature",
			"geometry" : {
				"type" : "Point",
				"coordinates" : [ 5.625096608041414, 58.956538194786646 ]
			},
			"properties" : {
				"Gatenavn" : "Larsokveien"
			}
		},
		{
			"type" : "Feature",
			"geometry" : {
				"type" : "Point",
				"coordinates" : [ 5.75018727726373, 58.994892434045184 ]
			},
			"properties" : {
				"Gatenavn" : "Skolebryggå"
			}
		},
		{
			"type" : "Feature",
			"geometry" : {
				"type" : "Point",
				"coordinates" : [ 5.686467395761057, 58.94657261830606 ]
			},
			"properties" : {
				"Gatenavn" : "Håbakken"
			}
		},
		{
			"type" : "Feature",
			"geometry" : {
				"type" : "Point",
				"coordinates" : [ 5.682604612481368, 58.95009572117476 ]
			},
			"properties" : {
				"Gatenavn" : "Gudrøds gate"
			}
		},
		{
			"type" : "Feature",
			"geometry" : {
				"type" : "Point",
				"coordinates" : [ 5.731924495152446, 58.90573164228993 ]
			},
			"properties" : {
				"Gatenavn" : "Sølvspennetunet"
			}
		},
		{
			"type" : "Feature",
			"geometry" : {
				"type" : "Point",
				"coordinates" : [ 5.729359952075653, 58.954704011966506 ]
			},
			"properties" : {
				"Gatenavn" : "Overlege Cappelens gate"
			}
		},
		{
			"type" : "Feature",
			"geometry" : {
				"type" : "Point",
				"coordinates" : [ 5.723494794805551, 58.97368056064372 ]
			},
			"properties" : {
				"Gatenavn" : "Borgermester Middelthons gate"
			}
		},
		{
			"type" : "Feature",
			"geometry" : {
				"type" : "Point",
				"coordinates" : [ 5.68822142649029, 58.967369444467835 ]
			},
			"properties" : {
				"Gatenavn" : "Stephan Sindings vei"
			}
		},
		{
			"type" : "Feature",
			"geometry" : {
				"type" : "Point",
				"coordinates" : [ 5.748356474339309, 58.95476530159617 ]
			},
			"properties" : {
				"Gatenavn" : "Paradisveien"
			}
		},
		{
			"type" : "Feature",
			"geometry" : {
				"type" : "Point",
				"coordinates" : [ 5.725738928809415, 58.97300031977238 ]
			},
			"properties" : {
				"Gatenavn" : "Bergsmauet"
			}
		},
		{
			"type" : "Feature",
			"geometry" : {
				"type" : "Point",
				"coordinates" : [ 5.729938416815495, 58.90525024149572 ]
			},
			"properties" : {
				"Gatenavn" : "Sølvspenneveien"
			}
		},
		{
			"type" : "Feature",
			"geometry" : {
				"type" : "Point",
				"coordinates" : [ 5.726260245249915, 58.96827113573119 ]
			},
			"properties" : {
				"Gatenavn" : "Ledaalsgata"
			}
		},
		{
			"type" : "Feature",
			"geometry" : {
				"type" : "Point",
				"coordinates" : [ 5.72618037128175, 58.93114527248926 ]
			},
			"properties" : {
				"Gatenavn" : "Turveien"
			}
		},
		{
			"type" : "Feature",
			"geometry" : {
				"type" : "Point",
				"coordinates" : [ 5.705273966966187, 58.979789213942794 ]
			},
			"properties" : {
				"Gatenavn" : "Tarjei Vesaas vei"
			}
		},
		{
			"type" : "Feature",
			"geometry" : {
				"type" : "Point",
				"coordinates" : [ 5.715908001390403, 58.95170720309384 ]
			},
			"properties" : {
				"Gatenavn" : "Ullandhaugveien"
			}
		},
		{
			"type" : "Feature",
			"geometry" : {
				"type" : "Point",
				"coordinates" : [ 5.724703276365775, 58.96044748229077 ]
			},
			"properties" : {
				"Gatenavn" : "Johan Thorsens gate"
			}
		},
		{
			"type" : "Feature",
			"geometry" : {
				"type" : "Point",
				"coordinates" : [ 5.742048992351837, 58.97031399587647 ]
			},
			"properties" : {
				"Gatenavn" : "Store Skippergate"
			}
		},
		{
			"type" : "Feature",
			"geometry" : {
				"type" : "Point",
				"coordinates" : [ 5.739189680896346, 58.967068532789035 ]
			},
			"properties" : {
				"Gatenavn" : "Stiftelsesgata"
			}
		},
		{
			"type" : "Feature",
			"geometry" : {
				"type" : "Point",
				"coordinates" : [ 5.687226890643549, 58.95762670156019 ]
			},
			"properties" : {
				"Gatenavn" : "Rektor Oldens gate"
			}
		},
		{
			"type" : "Feature",
			"geometry" : {
				"type" : "Point",
				"coordinates" : [ 5.7234281056456195, 58.909870843489735 ]
			},
			"properties" : {
				"Gatenavn" : "Austtunlia"
			}
		},
		{
			"type" : "Feature",
			"geometry" : {
				"type" : "Point",
				"coordinates" : [ 5.616240536800246, 58.961163328468174 ]
			},
			"properties" : {
				"Gatenavn" : "Skredbakkatunet"
			}
		},
		{
			"type" : "Feature",
			"geometry" : {
				"type" : "Point",
				"coordinates" : [ 5.732425021156673, 58.970700608722964 ]
			},
			"properties" : {
				"Gatenavn" : "Urgata"
			}
		},
		{
			"type" : "Feature",
			"geometry" : {
				"type" : "Point",
				"coordinates" : [ 5.739137286371392, 58.930564626384296 ]
			},
			"properties" : {
				"Gatenavn" : "Lyngnesveien"
			}
		},
		{
			"type" : "Feature",
			"geometry" : {
				"type" : "Point",
				"coordinates" : [ 5.7596676986707145, 58.96659900141686 ]
			},
			"properties" : {
				"Gatenavn" : "Lervigskaien"
			}
		},
		{
			"type" : "Feature",
			"geometry" : {
				"type" : "Point",
				"coordinates" : [ 5.708609035100781, 58.97258172813534 ]
			},
			"properties" : {
				"Gatenavn" : "Peter Krøyers gate"
			}
		},
		{
			"type" : "Feature",
			"geometry" : {
				"type" : "Point",
				"coordinates" : [ 5.729946893921711, 58.95900943500679 ]
			},
			"properties" : {
				"Gatenavn" : "Biskop Njåls gate"
			}
		},
		{
			"type" : "Feature",
			"geometry" : {
				"type" : "Point",
				"coordinates" : [ 5.745859624773752, 58.93125875636654 ]
			},
			"properties" : {
				"Gatenavn" : "Nesflåtveien"
			}
		},
		{
			"type" : "Feature",
			"geometry" : {
				"type" : "Point",
				"coordinates" : [ 5.614383987539701, 58.95952753317762 ]
			},
			"properties" : {
				"Gatenavn" : "Hottavikstraen"
			}
		},
		{
			"type" : "Feature",
			"geometry" : {
				"type" : "Point",
				"coordinates" : [ 5.705154435538176, 58.94510566314211 ]
			},
			"properties" : {
				"Gatenavn" : "Ullandhaugveien"
			}
		},
		{
			"type" : "Feature",
			"geometry" : {
				"type" : "Point",
				"coordinates" : [ 5.679100668446876, 58.99154397304241 ]
			},
			"properties" : {
				"Gatenavn" : "Gjerdeveien"
			}
		},
		{
			"type" : "Feature",
			"geometry" : {
				"type" : "Point",
				"coordinates" : [ 5.747809326385529, 58.97067969303993 ]
			},
			"properties" : {
				"Gatenavn" : "Øvre Banegate"
			}
		},
		{
			"type" : "Feature",
			"geometry" : {
				"type" : "Point",
				"coordinates" : [ 5.743219096576369, 58.892177295122124 ]
			},
			"properties" : {
				"Gatenavn" : "Forane"
			}
		},
		{
			"type" : "Feature",
			"geometry" : {
				"type" : "Point",
				"coordinates" : [ 5.7010683954511965, 58.97745363504823 ]
			},
			"properties" : {
				"Gatenavn" : "Øvre Sjøveien"
			}
		},
		{
			"type" : "Feature",
			"geometry" : {
				"type" : "Point",
				"coordinates" : [ 5.715432596644199, 58.981280342360876 ]
			},
			"properties" : {
				"Gatenavn" : "Tjuvholmveien"
			}
		},
		{
			"type" : "Feature",
			"geometry" : {
				"type" : "Point",
				"coordinates" : [ 5.734107327125643, 58.97272053960563 ]
			},
			"properties" : {
				"Gatenavn" : "Kjeringholmssmauet"
			}
		},
		{
			"type" : "Feature",
			"geometry" : {
				"type" : "Point",
				"coordinates" : [ 5.648317083314519, 58.96685111513777 ]
			},
			"properties" : {
				"Gatenavn" : "Krossbergveien"
			}
		},
		{
			"type" : "Feature",
			"geometry" : {
				"type" : "Point",
				"coordinates" : [ 5.688903948525115, 58.95501486028159 ]
			},
			"properties" : {
				"Gatenavn" : "Sisikveien"
			}
		},
		{
			"type" : "Feature",
			"geometry" : {
				"type" : "Point",
				"coordinates" : [ 5.69637471602895, 58.988412327957086 ]
			},
			"properties" : {
				"Gatenavn" : "Sandsteinveien"
			}
		},
		{
			"type" : "Feature",
			"geometry" : {
				"type" : "Point",
				"coordinates" : [ 5.655693668145491, 58.937491191511334 ]
			},
			"properties" : {
				"Gatenavn" : "Skytterlagsveien"
			}
		},
		{
			"type" : "Feature",
			"geometry" : {
				"type" : "Point",
				"coordinates" : [ 5.743447913865957, 58.96958599982826 ]
			},
			"properties" : {
				"Gatenavn" : "St. Hans gate"
			}
		},
		{
			"type" : "Feature",
			"geometry" : {
				"type" : "Point",
				"coordinates" : [ 5.726449786492424, 58.964192435384255 ]
			},
			"properties" : {
				"Gatenavn" : "Wessels gate"
			}
		},
		{
			"type" : "Feature",
			"geometry" : {
				"type" : "Point",
				"coordinates" : [ 5.734537364661738, 58.90789289498165 ]
			},
			"properties" : {
				"Gatenavn" : "Gauselvågen"
			}
		},
		{
			"type" : "Feature",
			"geometry" : {
				"type" : "Point",
				"coordinates" : [ 5.710963494841774, 58.9214744657659 ]
			},
			"properties" : {
				"Gatenavn" : "Grannesveien"
			}
		},
		{
			"type" : "Feature",
			"geometry" : {
				"type" : "Point",
				"coordinates" : [ 5.621390208763615, 58.9594855548938 ]
			},
			"properties" : {
				"Gatenavn" : "Aubehagen"
			}
		},
		{
			"type" : "Feature",
			"geometry" : {
				"type" : "Point",
				"coordinates" : [ 5.7424796352795315, 58.8956803340861 ]
			},
			"properties" : {
				"Gatenavn" : "Nedre Gauselvågen"
			}
		},
		{
			"type" : "Feature",
			"geometry" : {
				"type" : "Point",
				"coordinates" : [ 5.675566356876896, 58.98648441728653 ]
			},
			"properties" : {
				"Gatenavn" : "Eskelandsveien"
			}
		},
		{
			"type" : "Feature",
			"geometry" : {
				"type" : "Point",
				"coordinates" : [ 5.68517472171946, 58.94526196191827 ]
			},
			"properties" : {
				"Gatenavn" : "Kong Haralds gate"
			}
		},
		{
			"type" : "Feature",
			"geometry" : {
				"type" : "Point",
				"coordinates" : [ 5.707435496543297, 58.97281941753305 ]
			},
			"properties" : {
				"Gatenavn" : "Peter Reimers gate"
			}
		},
		{
			"type" : "Feature",
			"geometry" : {
				"type" : "Point",
				"coordinates" : [ 5.698910474267351, 58.91723040300639 ]
			},
			"properties" : {
				"Gatenavn" : "Asser Jåttens vei"
			}
		},
		{
			"type" : "Feature",
			"geometry" : {
				"type" : "Point",
				"coordinates" : [ 5.697967960846123, 58.896166028251486 ]
			},
			"properties" : {
				"Gatenavn" : "Fabrikkveien"
			}
		},
		{
			"type" : "Feature",
			"geometry" : {
				"type" : "Point",
				"coordinates" : [ 5.730611186554628, 58.95712689067838 ]
			},
			"properties" : {
				"Gatenavn" : "Byfoged Finnes gate"
			}
		},
		{
			"type" : "Feature",
			"geometry" : {
				"type" : "Point",
				"coordinates" : [ 5.73001016254897, 58.958222464309756 ]
			},
			"properties" : {
				"Gatenavn" : "Jørgen Moes gate"
			}
		},
		{
			"type" : "Feature",
			"geometry" : {
				"type" : "Point",
				"coordinates" : [ 5.741510506525994, 58.94877399042179 ]
			},
			"properties" : {
				"Gatenavn" : "Torgveien"
			}
		},
		{
			"type" : "Feature",
			"geometry" : {
				"type" : "Point",
				"coordinates" : [ 5.684944985274704, 58.95787461018985 ]
			},
			"properties" : {
				"Gatenavn" : "Spurvekroken"
			}
		},
		{
			"type" : "Feature",
			"geometry" : {
				"type" : "Point",
				"coordinates" : [ 5.785877952088381, 58.996103615997924 ]
			},
			"properties" : {
				"Gatenavn" : "Solvigveien"
			}
		},
		{
			"type" : "Feature",
			"geometry" : {
				"type" : "Point",
				"coordinates" : [ 5.736619748782371, 58.936885566069584 ]
			},
			"properties" : {
				"Gatenavn" : "Sivblomveien"
			}
		},
		{
			"type" : "Feature",
			"geometry" : {
				"type" : "Point",
				"coordinates" : [ 5.744923731386244, 58.988975621408976 ]
			},
			"properties" : {
				"Gatenavn" : "Øvre Vågen"
			}
		},
		{
			"type" : "Feature",
			"geometry" : {
				"type" : "Point",
				"coordinates" : [ 5.691012456528187, 58.95194102029072 ]
			},
			"properties" : {
				"Gatenavn" : "Ivar Ballangruds gate"
			}
		},
		{
			"type" : "Feature",
			"geometry" : {
				"type" : "Point",
				"coordinates" : [ 5.687097110761603, 58.983242279481324 ]
			},
			"properties" : {
				"Gatenavn" : "Randabergveien"
			}
		},
		{
			"type" : "Feature",
			"geometry" : {
				"type" : "Point",
				"coordinates" : [ 5.726335799821409, 58.929112516936634 ]
			},
			"properties" : {
				"Gatenavn" : "Markveien"
			}
		},
		{
			"type" : "Feature",
			"geometry" : {
				"type" : "Point",
				"coordinates" : [ 5.7429597234505145, 58.99363887127361 ]
			},
			"properties" : {
				"Gatenavn" : "Austbøsletta"
			}
		},
		{
			"type" : "Feature",
			"geometry" : {
				"type" : "Point",
				"coordinates" : [ 5.729911416064262, 58.89901620886124 ]
			},
			"properties" : {
				"Gatenavn" : "Kviebakken"
			}
		},
		{
			"type" : "Feature",
			"geometry" : {
				"type" : "Point",
				"coordinates" : [ 5.718138492294791, 58.948430968804864 ]
			},
			"properties" : {
				"Gatenavn" : "Riiser-Larsens gate"
			}
		},
		{
			"type" : "Feature",
			"geometry" : {
				"type" : "Point",
				"coordinates" : [ 5.658843381173482, 58.9890094412822 ]
			},
			"properties" : {
				"Gatenavn" : "Høyehaugen"
			}
		},
		{
			"type" : "Feature",
			"geometry" : {
				"type" : "Point",
				"coordinates" : [ 5.7038335834194696, 58.98604531287112 ]
			},
			"properties" : {
				"Gatenavn" : "Boknaveien"
			}
		},
		{
			"type" : "Feature",
			"geometry" : {
				"type" : "Point",
				"coordinates" : [ 5.742150942271408, 58.88924385846489 ]
			},
			"properties" : {
				"Gatenavn" : "Gamle Forusveien"
			}
		},
		{
			"type" : "Feature",
			"geometry" : {
				"type" : "Point",
				"coordinates" : [ 5.663562528959193, 58.95557507680294 ]
			},
			"properties" : {
				"Gatenavn" : "Ragveien"
			}
		},
		{
			"type" : "Feature",
			"geometry" : {
				"type" : "Point",
				"coordinates" : [ 5.686942986835168, 58.95029774064655 ]
			},
			"properties" : {
				"Gatenavn" : "Frodes gate"
			}
		},
		{
			"type" : "Feature",
			"geometry" : {
				"type" : "Point",
				"coordinates" : [ 5.755830011380306, 58.9622691710937 ]
			},
			"properties" : {
				"Gatenavn" : "Sletten"
			}
		},
		{
			"type" : "Feature",
			"geometry" : {
				"type" : "Point",
				"coordinates" : [ 5.755626604303031, 58.95855539303736 ]
			},
			"properties" : {
				"Gatenavn" : "Ramsvigstien"
			}
		},
		{
			"type" : "Feature",
			"geometry" : {
				"type" : "Point",
				"coordinates" : [ 5.721769167396448, 58.992928843308945 ]
			},
			"properties" : {
				"Gatenavn" : "Ulsnesveien"
			}
		},
		{
			"type" : "Feature",
			"geometry" : {
				"type" : "Point",
				"coordinates" : [ 5.725732965937564, 58.9027114936252 ]
			},
			"properties" : {
				"Gatenavn" : "Glassbegerveien"
			}
		},
		{
			"type" : "Feature",
			"geometry" : {
				"type" : "Point",
				"coordinates" : [ 5.726773343016314, 58.9326003610105 ]
			},
			"properties" : {
				"Gatenavn" : "Turveien"
			}
		},
		{
			"type" : "Feature",
			"geometry" : {
				"type" : "Point",
				"coordinates" : [ 5.7232071835848854, 58.99656235257688 ]
			},
			"properties" : {
				"Gatenavn" : "Sagafjords vei"
			}
		},
		{
			"type" : "Feature",
			"geometry" : {
				"type" : "Point",
				"coordinates" : [ 5.689080880241494, 58.962572588863935 ]
			},
			"properties" : {
				"Gatenavn" : "Stokkatunet"
			}
		},
		{
			"type" : "Feature",
			"geometry" : {
				"type" : "Point",
				"coordinates" : [ 5.640730581479786, 58.9392666583324 ]
			},
			"properties" : {
				"Gatenavn" : "Gjerdesvollen"
			}
		},
		{
			"type" : "Feature",
			"geometry" : {
				"type" : "Point",
				"coordinates" : [ 5.731597986072147, 58.95693388882195 ]
			},
			"properties" : {
				"Gatenavn" : "Kaptein Langes gate"
			}
		},
		{
			"type" : "Feature",
			"geometry" : {
				"type" : "Point",
				"coordinates" : [ 5.720731426360697, 58.97228594215425 ]
			},
			"properties" : {
				"Gatenavn" : "Tanke Svilands gate"
			}
		},
		{
			"type" : "Feature",
			"geometry" : {
				"type" : "Point",
				"coordinates" : [ 5.687450336803056, 58.96103330239571 ]
			},
			"properties" : {
				"Gatenavn" : "Krysantemumhagen"
			}
		},
		{
			"type" : "Feature",
			"geometry" : {
				"type" : "Point",
				"coordinates" : [ 5.732000960821389, 58.97045729830628 ]
			},
			"properties" : {
				"Gatenavn" : "Skagen"
			}
		},
		{
			"type" : "Feature",
			"geometry" : {
				"type" : "Point",
				"coordinates" : [ 5.724026438861415, 58.93342215419645 ]
			},
			"properties" : {
				"Gatenavn" : "Snarehaugen"
			}
		},
		{
			"type" : "Feature",
			"geometry" : {
				"type" : "Point",
				"coordinates" : [ 5.683068176339637, 58.94363129499186 ]
			},
			"properties" : {
				"Gatenavn" : "Dyvekes gate"
			}
		},
		{
			"type" : "Feature",
			"geometry" : {
				"type" : "Point",
				"coordinates" : [ 5.6809381290181555, 58.994361415491326 ]
			},
			"properties" : {
				"Gatenavn" : "Dusavikveien"
			}
		},
		{
			"type" : "Feature",
			"geometry" : {
				"type" : "Point",
				"coordinates" : [ 5.6922119069012735, 58.978535260193205 ]
			},
			"properties" : {
				"Gatenavn" : "Myrveien"
			}
		},
		{
			"type" : "Feature",
			"geometry" : {
				"type" : "Point",
				"coordinates" : [ 5.7148995438946715, 58.8958416245174 ]
			},
			"properties" : {
				"Gatenavn" : "Duberget"
			}
		},
		{
			"type" : "Feature",
			"geometry" : {
				"type" : "Point",
				"coordinates" : [ 5.6250589156007615, 58.95920952859124 ]
			},
			"properties" : {
				"Gatenavn" : "Syftesokbakken"
			}
		},
		{
			"type" : "Feature",
			"geometry" : {
				"type" : "Point",
				"coordinates" : [ 5.7368195790974035, 58.94355380775025 ]
			},
			"properties" : {
				"Gatenavn" : "Brattåsveien"
			}
		},